[{"id":"rec01UL4HeruYEB6r","fields":{"Club Name":"Craig High School","Latitude":42.681755791935146,"Longitude":-89.00073477116452,"Status":"active"}},{"id":"rec04zouoMz37sWnl","fields":{"Club Name":"NA","Latitude":41.5807248,"Longitude":-87.6407698,"Status":"inactive"}},{"id":"rec06E9DlSRJt3uYF","fields":{"Club Name":"Muizenberg high school ","Latitude":-34.0986879,"Longitude":18.4764759,"Status":"inactive"}},{"id":"rec07Pagi6ecEs5Wv","fields":{"Club Name":"Noida Institute of Engineering and Technology","Latitude":28.4623086,"Longitude":77.4904535,"Status":"inactive"}},{"id":"rec07crj0agTVazSI","fields":{"Club Name":"Guru Nanak Institutions Technical Campus","Latitude":17.1703279,"Longitude":78.65051179999999,"Status":"inactive"}},{"id":"rec07pGH5YT6A8fgs","fields":{"Club Name":"Newport High School","Latitude":47.568448153517295,"Longitude":-122.17230281662391,"Status":"active"}},{"id":"rec089Ho2tlEGashV","fields":{"Club Name":"Mahatma International School","Latitude":19.0071486,"Longitude":73.1106183,"Status":"inactive"}},{"id":"rec096rTLsPHcwM8M","fields":{"Club Name":"National School of Physics and Math in Astana, Kazakhstan (РФМШ Астана)","Latitude":51.1667,"Longitude":71.4333,"Status":"active"}},{"id":"rec0Een2WRgfM9wwm","fields":{"Club Name":"Georgetown Preparatory School ","Latitude":39.0320337,"Longitude":-77.1111133,"Status":"inactive"}},{"id":"rec0HaErOqQl2NhLd","fields":{"Club Name":"Northwood High School","Latitude":33.7324238,"Longitude":-117.75109758562078,"Status":"inactive"}},{"id":"rec0HzDjdHZhvx1go","fields":{"Club Name":"Mission San Jose High School","Latitude":37.5438003,"Longitude":-121.934645,"Status":"active"}},{"id":"rec0L1MbHWc73KT9Z","fields":{"Club Name":"ACCEL Middle College","Latitude":37.3011208,"Longitude":-121.76373349208147,"Status":"inactive"}},{"id":"rec0OvauWL7gzgH4t","fields":{"Club Name":"Ravenwood Hack Club","Latitude":35.9556381,"Longitude":-86.76475760000001,"Status":"inactive"}},{"id":"rec0PNbL3t7wsFaU6","fields":{"Club Name":"The Orpheus Cult","Latitude":44.3805618,"Longitude":-73.2296756,"Status":"active"}},{"id":"rec0QVyxf3GQS1817","fields":{"Club Name":"Liberty High School","Latitude":38.7579026,"Longitude":-90.78701149999999,"Status":"active"}},{"id":"rec0TSUBlsrYoHfBE","fields":{"Club Name":"Chung Ling Private High School","Latitude":5.4074406,"Longitude":100.2975451,"Status":"inactive"}},{"id":"rec0Tg3VWMoVsvvyt","fields":{"Club Name":"Nairobi Hack Club","Latitude":-1.3197456323405197,"Longitude":36.8234315807978,"Status":"active"}},{"id":"rec0b9o6RQR4i481L","fields":{"Club Name":"Archie Williams High School","Latitude":37.983402047790015,"Longitude":-122.5722731150327,"Status":"active"}},{"id":"rec0bYshSBpdyY182","fields":{"Club Name":"CODERS","Latitude":31.63505231915016,"Longitude":74.87069405082859,"Status":"active"}},{"id":"rec0e2EZSdiN500zy","fields":{"Club Name":"CMS Cambridge","Latitude":26.8403496,"Longitude":81.00947409999999,"Status":"inactive"}},{"id":"rec0gNoo14McbR1Is","fields":{"Club Name":"Hack Club HQ","Latitude":44.380842283570196,"Longitude":-73.22706985767203,"Status":"active"}},{"id":"rec0hxQt9dx4RNK8b","fields":{"Club Name":"Inventure Academy","Status":"active"}},{"id":"rec0j5C52Xx38p2rx","fields":{"Club Name":"Manickamangalam NSS","Status":"inactive"}},{"id":"rec0ja8cBQPhmKoa8","fields":{"Club Name":"Sacred Hearts College","Status":"inactive"}},{"id":"rec0kboqpKKhTfRgg","fields":{"Club Name":"Dr. B. C. Roy Engineering college, Durgapur","Latitude":23.5360832,"Longitude":87.3394975,"Status":"inactive"}},{"id":"rec0kunb7sWjgHpth","fields":{"Club Name":"Divyalok society","Latitude":28.42088090526243,"Longitude":77.28849919187421,"Status":"active"}},{"id":"rec0oeLOBBT8wF5Kg","fields":{"Club Name":"Cinco Ranch High School","Status":"active"}},{"id":"rec0qrC1Dwaaup9Cu","fields":{"Club Name":"Essex High School","Latitude":44.4982873,"Longitude":-73.1100593,"Status":"inactive"}},{"id":"rec0tbdFeIdlg0Cme","fields":{"Club Name":"Heilig Hart Heverlee","Latitude":50.858193206466105,"Longitude":4.698719426456261,"Status":"active"}},{"id":"rec0uYq7ouSjdjhol","fields":{"Club Name":"chemnad jamath higher secondary school","Latitude":12.4682366,"Longitude":75.00707919999999,"Status":"inactive"}},{"id":"rec0vrgdzFazHyJQL","fields":{"Club Name":"Tinovation","Latitude":37.319334924494534,"Longitude":-122.00928393475006,"Status":"active"}},{"id":"rec0x8GdxWvrY9noq","fields":{"Club Name":"Novi High School","Status":"active"}},{"id":"rec0xu76lN2JMii5u","fields":{"Club Name":"Runshaw College","Latitude":53.70759849385469,"Longitude":-2.6793563682939565,"Status":"active"}},{"id":"rec0ylhsy2ZiDDGHq","fields":{"Club Name":"Verdugo Hills High School","Latitude":34.2613775,"Longitude":-118.2993739,"Status":"active"}},{"id":"rec0z7t5tHHYzW69I","fields":{"Club Name":"Hack Club Philippines","Latitude":14.692514366331652,"Longitude":120.96547439521265,"Status":"active"}},{"id":"rec10YROzgERUAHSu","fields":{"Club Name":"Amity Regional High School","Latitude":41.3574219,"Longitude":-73.0077637,"Status":"active"}},{"id":"rec176dwfRbZOVuwe","fields":{"Club Name":"Tuscarora High School","Latitude":39.377656703848444,"Longitude":-77.44535745014339,"Status":"active"}},{"id":"rec17AlENfWa4X7qy","fields":{"Club Name":"Marathwada Institute of technology  Collage Aurangabad, Maharashtra India","Latitude":27.7087135,"Longitude":85.3165204,"Status":"inactive"}},{"id":"rec18qIV2UQQPJ5yu","fields":{"Club Name":"Martin Luther King Jr. High School","Latitude":33.88370601701816,"Longitude":-117.33411677872793,"Status":"active"}},{"id":"rec1AuZmOSk7yDPAR","fields":{"Club Name":"Cypress Creek High School","Latitude":28.3834737,"Longitude":-81.3778552,"Status":"inactive"}},{"id":"rec1FXPZ5nE7uMdmj","fields":{"Club Name":"Semiahmoo Secondary School","Latitude":49.034788,"Longitude":-122.8139111,"Status":"active"}},{"id":"rec1FzhzuxLQ3741R","fields":{"Club Name":"Teays Valley High School","Latitude":39.7228155,"Longitude":-82.9486434,"Status":"active"}},{"id":"rec1HFBFO0PwYzodQ","fields":{"Club Name":"Hack2BOOM Club","Latitude":350613.2,"Longitude":1171143.1,"Status":"active"}},{"id":"rec1HXVN22pRZYz1c","fields":{"Club Name":"Millis public library ","Latitude":42.16612994929675,"Longitude":-71.36199765767229,"Status":"active"}},{"id":"rec1KzGK90C8mcTpY","fields":{"Club Name":"IIIT Bhopal","Latitude":23.2151769,"Longitude":77.40994970000001,"Status":"inactive"}},{"id":"rec1NOK3w804zaFxE","fields":{"Club Name":"Mehran UET Shaheed Z.A Bhutto Khairpur Mir's","Latitude":27.5255625,"Longitude":68.75507329999999,"Status":"inactive"}},{"id":"rec1RSTMIMTjkdBvO","fields":{"Club Name":"Glendowie College","Latitude":-36.86254695531903,"Longitude":174.8683526522028,"Status":"active"}},{"id":"rec1RW86ji9ElOd3X","fields":{"Club Name":"Notting Hill and Ealing High School","Latitude":51.583594081271706,"Longitude":-0.2904445600781478,"Status":"active"}},{"id":"rec1Sq98uxQR65Kxn","fields":{"Club Name":"Pathways School Noida","Latitude":28.5000336,"Longitude":77.40795419999999,"Status":"active"}},{"id":"rec1Ss2pXTVxK6pjP","fields":{"Club Name":"Scholars' Secondary School","Latitude":29.92613409465336,"Longitude":31.068100438633067,"Status":"active"}},{"id":"rec1UScTU9owzSSlB","fields":{"Club Name":"Shanghai Starriver Bilingual School","Latitude":31.164337016038335,"Longitude":121.3437019719497,"Status":"active"}},{"id":"rec1a2SxTtpBRfGBg","fields":{"Club Name":"Vellore Institute of Technology","Latitude":12.971743,"Longitude":79.15941649999999,"Status":"inactive"}},{"id":"rec1dPzTEJTQBdeQr","fields":{"Club Name":"Glen Waverly Secondary College ","Latitude":-37.8784843,"Longitude":145.1643242,"Status":"inactive"}},{"id":"rec1eKwI1D1LmCIRw","fields":{"Club Name":"Albertian Institute of Science & Technology","Latitude":10.044823,"Longitude":76.3242507,"Status":"inactive"}},{"id":"rec1gSIq0ts6tSMUJ","fields":{"Club Name":"John Fraser Secondary School","Latitude":43.55977580096778,"Longitude":-79.71591568955931,"Status":"active"}},{"id":"rec1hlEgM8lUcJZan","fields":{"Club Name":"Hackverse","Latitude":26.7303325354385,"Longitude":83.38157915582221,"Status":"active"}},{"id":"rec1i544vQJ40Apyd","fields":{"Club Name":"St Johns Em School","Latitude":16.523327,"Longitude":80.6688054,"Status":"inactive"}},{"id":"rec1jHwcabqJAYfaj","fields":{"Club Name":"Boston Collegiate Charter School","Latitude":42.32181665692613,"Longitude":-71.06086648465546,"Status":"active"}},{"id":"rec1jccXXTAEmZ2h5","fields":{"Club Name":"Lynn Rose College","Latitude":43.60660702168258,"Longitude":-79.76325475396929,"Status":"active"}},{"id":"rec1kyreBY6qsndMn","fields":{"Club Name":"International School of Bellevue","Latitude":47.6042005,"Longitude":-122.1712904,"Status":"active"}},{"id":"rec1mNVImcOL1L8Fz","fields":{"Club Name":"Sathyabama Institute of Science and Technology","Status":"inactive"}},{"id":"rec1uQElhlT1D2Ihv","fields":{"Club Name":"University Institute of Technology RGPV Bhopal","Latitude":23.3101737,"Longitude":77.3616574,"Status":"inactive"}},{"id":"rec1vqPe3AoZHULDV","fields":{"Club Name":"Shanghai Pinghe School","Latitude":31.239261627841486,"Longitude":121.58958436909525,"Status":"active"}},{"id":"rec1w8FbeMIQibMhf","fields":{"Club Name":"Maulana Azad National Urdu University ","Latitude":17.4267618,"Longitude":78.3613479,"Status":"inactive"}},{"id":"rec1wx7DM2sbWVgbp","fields":{"Club Name":"Colegiul National Andrei Muresanu Dej","Latitude":47.1415878,"Longitude":23.8787342,"Status":"active"}},{"id":"rec20wUkVPaSjKB0I","fields":{"Club Name":"Irvine High School","Latitude":33.70232125,"Longitude":-117.7821632065237,"Status":"unknown"}},{"id":"rec233Ukgzs4l1QsJ","fields":{"Club Name":"Sreenidhi Institute of Science and Technology","Latitude":17.4568224,"Longitude":78.6577882,"Status":"inactive"}},{"id":"rec24RAcDf60NRtXu","fields":{"Club Name":"SRM Institute of Science and Technology Kattankulathur","Latitude":12.8194749,"Longitude":80.0392486,"Status":"inactive"}},{"id":"rec24zmo01wHm7AXD","fields":{"Club Name":"Brooklyn Technical High School","Latitude":40.68903936030131,"Longitude":-73.97680196037045,"Status":"active"}},{"id":"rec2HjyIwqYfXJGDh","fields":{"Club Name":"OCV Secondary Ottowa ","Latitude":45.4215296,"Longitude":-75.69719309999999,"Status":"inactive"}},{"id":"rec2MJxMxJouV3w7W","fields":{"Club Name":"Ridgewood High School","Latitude":40.97820634128197,"Longitude":-74.10602983862168,"Status":"active"}},{"id":"rec2N1i9ivf0CaCDo","fields":{"Club Name":"Hack hub","Latitude":-1.9794075406323643,"Longitude":30.077877968766234,"Status":"active"}},{"id":"rec2NvG2iFkik9xzQ","fields":{"Club Name":"Johns Creek High School","Latitude":34.0224378,"Longitude":-84.19291935685692,"Status":"unknown"}},{"id":"rec2OGfFkfZoiWgVb","fields":{"Club Name":"Chapel School","Latitude":-23.6493064,"Longitude":-46.6914409,"Status":"inactive"}},{"id":"rec2OQa1NLteUwOqf","fields":{"Club Name":"Boston Latin Academy","Latitude":42.31602156649613,"Longitude":-71.08464695952001,"Status":"active"}},{"id":"rec2QpCqaM0VUFQi7","fields":{"Club Name":"Port Credit Secondary School","Latitude":43.562847149999996,"Longitude":-79.58781235388106,"Status":"inactive"}},{"id":"rec2S0zuVPozrl5ly","fields":{"Club Name":"Oxford Academy","Latitude":33.824041,"Longitude":-118.042266,"Status":"active"}},{"id":"rec2SU9sfKqccF22L","fields":{"Club Name":"Synthax","Latitude":12.884209996461589,"Longitude":77.71010608544807,"Status":"active"}},{"id":"rec2Y9B2ITikUHWP6","fields":{"Club Name":"Vidya Bharati Public School","Latitude":27.57846289062965,"Longitude":75.14590225976167,"Status":"active"}},{"id":"rec2a9liLMM2Ul2F1","fields":{"Club Name":"New Canaan Library","Latitude":41.14575289104846,"Longitude":-73.49225557511518,"Status":"active"}},{"id":"rec2b7ntoMQSDuKUE","fields":{"Club Name":"Lauralton Hall","Latitude":41.2230482,"Longitude":-73.0648774,"Status":"active"}},{"id":"rec2e2rkFZJQfVRi8","fields":{"Club Name":"Novato High School","Latitude":38.08899350451069,"Longitude":-122.57119654232847,"Status":"active"}},{"id":"rec2hC07tj1r7dNWX","fields":{"Club Name":"Beths Grammar School","Latitude":51.446541684485894,"Longitude":0.15065027255190716,"Status":"active"}},{"id":"rec2hdXP8ItAg3rwX","fields":{"Club Name":"Code Fingers","Latitude":7.148572468475683,"Longitude":3.3615704164654954,"Status":"active"}},{"id":"rec2jvgmLC5eI6v8D","fields":{"Club Name":"The Kalyani School","Latitude":18.521266,"Longitude":73.98257339999999,"Status":"inactive"}},{"id":"rec2m4mXKF6l78iS7","fields":{"Club Name":"Huseyin Avni Sozen Anatolian High School","Latitude":41.0123664,"Longitude":29.0371793,"Status":"inactive"}},{"id":"rec2njUZVFyybY2FF","fields":{"Club Name":"Saint Ignatius College Prep","Latitude":41.867720899999995,"Longitude":-87.653700750584,"Status":"unknown"}},{"id":"rec2pQAYgn7l0P9fZ","fields":{"Club Name":"Cashmere High School","Latitude":-43.56563985331158,"Longitude":172.62399046375663,"Status":"active"}},{"id":"rec2qYC92llMH5CXa","fields":{"Club Name":"Fountainhead School","Latitude":21.2445924,"Longitude":72.7525753,"Status":"inactive"}},{"id":"rec2sRYYTSSOLkwON","fields":{"Club Name":"Cypress Bay High School","Latitude":26.0655559,"Longitude":-80.39804769999999,"Status":"active"}},{"id":"rec2sym0lBTcWM2gq","fields":{"Club Name":"Kildonan East Collegiate","Latitude":49.9168411,"Longitude":-97.07495449999999,"Status":"inactive"}},{"id":"rec2tTHBDN2Kewtlo","fields":{"Club Name":"Qena STEM School","Latitude":26.2448,"Longitude":32.7407,"Status":"active"}},{"id":"rec2viSYNh4Lc2qpT","fields":{"Club Name":"AlexHack","Latitude":31.209048502674573,"Longitude":29.92484275889567,"Status":"active"}},{"id":"rec34xTDPvmEyvYhF","fields":{"Club Name":"William H. Hall High School","Latitude":41.79436304152755,"Longitude":-72.75106820704009,"Status":"active"}},{"id":"rec39QI0PMrb507BA","fields":{"Club Name":"Pinions Robotics","Status":"active"}},{"id":"rec3Abl2HQEBtpvVM","fields":{"Club Name":"DMI-ST. EUGENE UNIVERSITY","Latitude":-13.9433704,"Longitude":28.6659299,"Status":"inactive"}},{"id":"rec3CUlubcwUvTjHy","fields":{"Club Name":"Berman Hebrew Academy","Latitude":39.073576994768835,"Longitude":-77.1006845269854,"Status":"active"}},{"id":"rec3DIV9Utc6Gm2YI","fields":{"Club Name":"California High School","Latitude":37.74688182024722,"Longitude":-121.94554107122772,"Status":"active"}},{"id":"rec3EejEZnQsSYZLy","fields":{"Club Name":"SEETHI SAHIB HSS","Status":"inactive"}},{"id":"rec3F7Ab7WtKcXgri","fields":{"Club Name":"DJ Sanghvi College Of Engineering","Latitude":19.1071059,"Longitude":72.83710740000001,"Status":"inactive"}},{"id":"rec3Gt9cs8RUyIhVw","fields":{"Club Name":"Menofia STEM School","Latitude":25.2513145,"Longitude":55.3295568,"Status":"inactive"}},{"id":"rec3JNZVnK7McbSZ6","fields":{"Club Name":"Markville Secondary School","Latitude":43.87801691826515,"Longitude":-79.28907076931932,"Status":"active"}},{"id":"rec3JbGgyD7q8Awc0","fields":{"Club Name":"Octavia Fellin Public Library","Latitude":35.526602159108876,"Longitude":-108.74224807301687,"Status":"active"}},{"id":"rec3JcGscc0UCiBA1","fields":{"Club Name":"Gaither High School","Latitude":28.10115530772642,"Longitude":-82.50518157116443,"Status":"active"}},{"id":"rec3JcX1YI997afYG","fields":{"Club Name":"Brooklyn Technical High School","Latitude":40.6887573,"Longitude":-73.97640887345645,"Status":"inactive"}},{"id":"rec3L9YTuJNjxQM9p","fields":{"Club Name":"Paradise Valley High School","Latitude":33.6432903887667,"Longitude":-111.99804719937174,"Status":"active"}},{"id":"rec3LuRclSCziJgVx","fields":{"Club Name":"Leicester High School for Girls","Latitude":52.60936506728101,"Longitude":-1.097432875405205,"Status":"active"}},{"id":"rec3MRGKiYcitEFax","fields":{"Club Name":"St Andrews International School","Latitude":13.71769229917125,"Longitude":100.58732590775828,"Status":"active"}},{"id":"rec3NCHSCWuz1f1eK","fields":{"Club Name":"Central Academy ","Latitude":26.7851194,"Longitude":82.7225751,"Status":"inactive"}},{"id":"rec3Q0K6YTBKOxXvc","fields":{"Club Name":"Cyber Link","Latitude":24.815891601071343,"Longitude":67.00831850447341,"Status":"active"}},{"id":"rec3V8wNIkdYZtw9n","fields":{"Club Name":"Mira Mesa High School","Latitude":32.911515804376144,"Longitude":-117.14032916931497,"Status":"active"}},{"id":"rec3X1YRLqGGqnadT","fields":{"Club Name":"Happy Hack Taxila Central College","Status":"inactive"}},{"id":"rec3YtLlZzC8atkk8","fields":{"Club Name":"S.N.Francis E.M. School","Latitude":11.842445,"Longitude":75.42136219999999,"Status":"inactive"}},{"id":"rec3ZEBi4A6t56ZKD","fields":{"Club Name":"Merivale High School","Latitude":45.34366985862639,"Longitude":-75.72794405951508,"Status":"active"}},{"id":"rec3aNi78aUiG8TND","fields":{"Club Name":"Desert Vista Computer Science Club","Latitude":33.295964204792696,"Longitude":-112.01521081534078,"Status":"active"}},{"id":"rec3bJx6EdH17ayqj","fields":{"Club Name":"CYPEC","Latitude":30.402953589672357,"Longitude":73.32812368331399,"Status":"active"}},{"id":"rec3gAahcMzhzYKfE","fields":{"Club Name":"Sehome High School","Latitude":48.72734288531604,"Longitude":-122.48139667237756,"Status":"active"}},{"id":"rec3gjFXUAUfTSQIT","fields":{"Club Name":"Computer Room","Latitude":46.227638,"Longitude":2.213749,"Status":"inactive"}},{"id":"rec3gy9gszr3PSuko","fields":{"Club Name":"Abbey Park High School","Status":"active"}},{"id":"rec3i8ewB0CKuqCYB","fields":{"Club Name":"SUST","Latitude":24.8949294,"Longitude":91.8687063,"Status":"inactive"}},{"id":"rec3iddagf0czy0P8","fields":{"Club Name":"Vellore Institute of Technology, Bhopal","Latitude":23.2437421,"Longitude":77.24804759999999,"Status":"inactive"}},{"id":"rec3jFtlJ5KrmcfrD","fields":{"Club Name":"Szkola Podstawowa Nr 1","Latitude":52.14448688097822,"Longitude":20.708888827606586,"Status":"active"}},{"id":"rec3kuKvP7XYrx1JT","fields":{"Club Name":"Sagar Institute of Science and Technology","Latitude":23.3039169,"Longitude":77.34008039999999,"Status":"inactive"}},{"id":"rec3lTULdDTbYietc","fields":{"Club Name":"Nhat","Status":"inactive"}},{"id":"rec3pT9xf6JAtcUmD","fields":{"Club Name":"Mainly Dhaka, But we will try to cover the entire Bangladesh","Status":"inactive"}},{"id":"rec3qS7G44NFZJpik","fields":{"Club Name":"Centennial HIgh School","Latitude":39.25267544599284,"Longitude":-76.86887194788301,"Status":"active"}},{"id":"rec3qd6no9RTMU6FH","fields":{"Club Name":"Khalsa Secondary School","Latitude":49.19533729479396,"Longitude":-122.88020417116482,"Status":"active"}},{"id":"rec3u1xe83oTuI04L","fields":{"Club Name":"Hackathon Club","Latitude":34.1137087,"Longitude":-117.7209806,"Status":"active"}},{"id":"rec40W0DG0pe0je5X","fields":{"Club Name":"PES Modern College of Engineering ","Latitude":18.5255643,"Longitude":73.8464113,"Status":"inactive"}},{"id":"rec4BOmnzV7l0bzmX","fields":{"Club Name":"Fort Mill Highschool","Latitude":35.012544653112194,"Longitude":-80.96425947112321,"Status":"active"}},{"id":"rec4BvfiMENqGyw8k","fields":{"Club Name":"Stephen Lewis Secondary School ","Latitude":43.836272128564595,"Longitude":-79.47578415396215,"Status":"active"}},{"id":"rec4D0wntyh6JaL4H","fields":{"Club Name":"Queen Elizabeth's School, Crediton","Latitude":50.79205952940976,"Longitude":-3.6660854325837553,"Status":"active"}},{"id":"rec4DHpUEdppUv7bl","fields":{"Club Name":"Torrey Pines High School","Latitude":32.9574274,"Longitude":-117.2250268,"Status":"active"}},{"id":"rec4EnSI5af7alAaH","fields":{"Club Name":"Riverbend High School","Latitude":38.2972457,"Longitude":-77.57310269486754,"Status":"unknown"}},{"id":"rec4GE2i34So8BeUA","fields":{"Club Name":"Oceanside High School","Latitude":33.198132565027535,"Longitude":-117.37372335767229,"Status":"inactive"}},{"id":"rec4ILV82TEJbdfQm","fields":{"Club Name":"CodeX","Latitude":31.66,"Longitude":74.8668,"Status":"active"}},{"id":"rec4LuVKTTSA74uEs","fields":{"Club Name":"St Vitus College Hacking Club","Latitude":52.26831710226426,"Longitude":5.152452820238934,"Status":"active"}},{"id":"rec4NHVQSshbNptxK","fields":{"Club Name":"Summits international school","Latitude":29.959506053037888,"Longitude":31.262851006015946,"Status":"active"}},{"id":"rec4OGaygLERoG9hV","fields":{"Club Name":"Apeejay School, NOIDA","Latitude":28.5708571,"Longitude":77.3137756,"Status":"inactive"}},{"id":"rec4OinAEWjKYFRta","fields":{"Club Name":"Chesterton High School","Latitude":41.589166831366455,"Longitude":-87.06460097116499,"Status":"active"}},{"id":"rec4PDaH54LGW52MX","fields":{"Club Name":"Nevzat Ayaz Anatolian High School","Latitude":41.0300158,"Longitude":29.1028267,"Status":"active"}},{"id":"rec4QD0xEcCo5QDTX","fields":{"Club Name":"North Cap","Latitude":28.5036494,"Longitude":77.0498665,"Status":"inactive"}},{"id":"rec4RI7smC2WzJa6e","fields":{"Club Name":"Nelson Mandela High School, Berlin International School","Latitude":52.491541034151886,"Longitude":13.3210699,"Status":"active"}},{"id":"rec4RnHKXIcGxF5qi","fields":{"Club Name":"BuildRTP","Latitude":35.887549388487486,"Longitude":-78.88635108868618,"Status":"active"}},{"id":"rec4TY0sUIY6uzauE","fields":{"Club Name":"Uber Egypt","Latitude":29.0661274,"Longitude":31.0993845,"Status":"active"}},{"id":"rec4To98cMizOC0Dw","fields":{"Club Name":"International School of Kenya Hack Club (ISK Hack Club) ","Latitude":-1.2236655,"Longitude":36.7542141,"Status":"inactive"}},{"id":"rec4bfUw0ICEbdP9z","fields":{"Club Name":"I was thinking my school, but they are the kind of people who want to get this approved first before I start anything.","Latitude":38.83215986182833,"Longitude":-77.09862122008698,"Status":"inactive"}},{"id":"rec4i70CjGx75vuJb","fields":{"Club Name":"Innovation Academy","Latitude":34.07679219250496,"Longitude":-84.29930959325145,"Status":"active"}},{"id":"rec4i7IN4HslObTEb","fields":{"Club Name":"Fast Nuces Cfd campus","Latitude":31.7215297,"Longitude":72.9830465,"Status":"inactive"}},{"id":"rec4jaQLNg5QBA9dG","fields":{"Club Name":"Noldea","Latitude":34.0837,"Longitude":74.7973,"Status":"active"}},{"id":"rec4lXFpgIeZ7AxZq","fields":{"Club Name":"Philippine Science High School - Central Luzon Campus","Status":"inactive"}},{"id":"rec4mZ9hjnYu5I1oI","fields":{"Club Name":"Hack Club Syria","Latitude":33.55563796189276,"Longitude":36.13346422372274,"Status":"active"}},{"id":"rec4oCHYxrCqPjvjs","fields":{"Club Name":"Shoolini University Of Biotechnology and Management Sciences","Status":"inactive"}},{"id":"rec4oXkWEh8pUxe8u","fields":{"Club Name":"Nakatindi Primary School","Latitude":-17.8546475,"Longitude":25.8144656,"Status":"inactive"}},{"id":"rec4pRaHdms18XMIU","fields":{"Club Name":"Dr. Ronald E. McNair Academic High School ","Latitude":40.7267734,"Longitude":-74.04741791442493,"Status":"inactive"}},{"id":"rec4qBgxTO0dR9zy0","fields":{"Club Name":"The Pike School (my middle school)","Latitude":42.631928453941754,"Longitude":-71.13181165397329,"Status":"active"}},{"id":"rec4qJD1g5dso5E3b","fields":{"Club Name":"Code & Cipher","Latitude":28.523521490555538,"Longitude":77.20869931828832,"Status":"active"}},{"id":"rec4rWk0BTcSfb7hi","fields":{"Club Name":"BLØCK:BLR","Latitude":12.925138033585725,"Longitude":77.68788089273427,"Status":"active"}},{"id":"rec4uTe3HqxV4UNeR","fields":{"Club Name":"Harcourt Butler Technical University","Status":"inactive"}},{"id":"rec4uhq1wo0v4KQat","fields":{"Club Name":"Drimnagh Castle Secondary School","Latitude":53.324687652281185,"Longitude":-6.333492038629901,"Status":"active"}},{"id":"rec4vV7kZRvEa6ZS2","fields":{"Club Name":"The Shri Ram School Moulsari","Latitude":28.498820582886793,"Longitude":77.10039943068712,"Status":"active"}},{"id":"rec4wfBmDyUsbMmfB","fields":{"Club Name":"Hackniques Academy","Status":"inactive"}},{"id":"rec4wkETs5GygXHH6","fields":{"Club Name":"Indian Institute of Information Technology Sri City","Latitude":13.5552932,"Longitude":80.02669,"Status":"inactive"}},{"id":"rec4x403D3y8G7H69","fields":{"Club Name":"Castro Valley High","Latitude":37.70470936241069,"Longitude":-122.07794873596218,"Status":"active"}},{"id":"rec4xPp0mk2fPP40p","fields":{"Club Name":"Paradigm","Latitude":28.543966761130335,"Longitude":77.33745039187322,"Status":"active"}},{"id":"rec4yYC2CbexaTHAe","fields":{"Club Name":"CoolAsCode","Latitude":19.25407701422279,"Longitude":73.14280661291504,"Status":"active"}},{"id":"rec51dD2vMn1Qvkj4","fields":{"Club Name":"Guru Tegh Bahadur Institute of Technology","Latitude":28.640806,"Longitude":77.086222,"Status":"active"}},{"id":"rec520DQZmnGjHwZY","fields":{"Club Name":"BHS programming club","Latitude":42.5012665,"Longitude":-71.1949753,"Status":"inactive"}},{"id":"rec562ZEMI9qNEa5H","fields":{"Club Name":"KLE DR.MSSCET","Latitude":15.8251122,"Longitude":74.5033274,"Status":"inactive"}},{"id":"rec5A2SRsaLXEisFE","fields":{"Club Name":"İskele Middle School","Latitude":38.36378162693926,"Longitude":26.770521508015868,"Status":"active"}},{"id":"rec5ClyecAR0zbZb1","fields":{"Club Name":"Boston Latin School","Latitude":42.337857379375684,"Longitude":-71.10112170340905,"Status":"active"}},{"id":"rec5DVcX1J4kA5EFA","fields":{"Club Name":"Royal College","Latitude":6.9061014,"Longitude":79.8606363,"Status":"inactive"}},{"id":"rec5FJKsTkAYdG06q","fields":{"Club Name":"AF Brooklyn Hack Club","Latitude":40.677757195539584,"Longitude":-73.94217922752118,"Status":"active"}},{"id":"rec5I5tBEHYXGpKg6","fields":{"Club Name":"STEM Assiut","Latitude":27.1849013,"Longitude":31.0750008,"Status":"inactive"}},{"id":"rec5JBUAnNSZAlW6k","fields":{"Club Name":"White Oaks Secondary School","Latitude":43.4627063,"Longitude":-79.701028,"Status":"inactive"}},{"id":"rec5KCI4QGxyCW3Ko","fields":{"Club Name":"St. Stephen's Episcopal School","Latitude":30.3303994,"Longitude":-97.8192418,"Status":"inactive"}},{"id":"rec5MFeZsXYGlyf8Q","fields":{"Club Name":"Chicopee High School","Latitude":42.1486,"Longitude":-72.5844,"Status":"active"}},{"id":"rec5MdAf4lvft7qqJ","fields":{"Club Name":"The American School in London","Latitude":51.5347564,"Longitude":-0.17663419046385764,"Status":"inactive"}},{"id":"rec5Q6e5AxApcWZ51","fields":{"Club Name":"Colégio Pedro II","Latitude":-22.8685082,"Longitude":-43.1055,"Status":"unknown"}},{"id":"rec5Tictd5OIjgO8w","fields":{"Club Name":"Shenandoah Valley Academy","Latitude":38.6493228,"Longitude":-78.6897774,"Status":"inactive"}},{"id":"rec5V6sOvcABeXlBP","fields":{"Club Name":"Handong International School (HIS)","Latitude":36.102232,"Longitude":129.3897838,"Status":"inactive"}},{"id":"rec5WmvV6eJpDWTde","fields":{"Club Name":"Archimedean Upper Conservatory","Latitude":25.70129738874306,"Longitude":-80.39390691536303,"Status":"active"}},{"id":"rec5YP2SUZtOz5obp","fields":{"Club Name":"Columbus School for Girls","Latitude":39.968714405527045,"Longitude":-82.93746768465749,"Status":"active"}},{"id":"rec5eDQR8EpcwWEx8","fields":{"Club Name":"DevAmbroise","Latitude":45.58403666897204,"Longitude":5.908412486403082,"Status":"inactive"}},{"id":"rec5gnZPQMimlJXcV","fields":{"Club Name":"KMEA engineering college","Latitude":10.0533296,"Longitude":76.37995719999999,"Status":"inactive"}},{"id":"rec5j1M6IeEhosLk7","fields":{"Club Name":"lovely professional university","Latitude":31.255992,"Longitude":75.70514349999999,"Status":"inactive"}},{"id":"rec5lMhnXFHdUZOyV","fields":{"Club Name":"Bishop Stang High School ","Latitude":41.635682,"Longitude":-70.96819359999999,"Status":"active"}},{"id":"rec5qnzWAFNLppV9a","fields":{"Club Name":"School of Scholars, Wanadongri","Latitude":21.0949245,"Longitude":78.97560059999999,"Status":"active"}},{"id":"rec5rwmkGaMdmRUOl","fields":{"Club Name":"Ronald Reagan High School","Latitude":29.621640749999997,"Longitude":-98.4856561859186,"Status":"active"}},{"id":"rec5vZCC40d0gdyKk","fields":{"Club Name":"Smt Indira Gandhi clg of engineering ","Latitude":19.1442437,"Longitude":72.9980661,"Status":"inactive"}},{"id":"rec5wD608mcU3kps6","fields":{"Club Name":"STEM Ismailia High School","Latitude":30.5964923,"Longitude":32.2714587,"Status":"inactive"}},{"id":"rec5xpd72uUJHqgkY","fields":{"Club Name":"Army Public School, Dhaula Kuan","Latitude":28.6007942,"Longitude":77.1689274,"Status":"inactive"}},{"id":"rec5yXLzEdBbqaiMb","fields":{"Club Name":"SRI SARADA VIDYA NILAYAM ATL","Latitude":17.740735456147352,"Longitude":83.32650437494962,"Status":"active"}},{"id":"rec5zCE815fNx5bEh","fields":{"Club Name":"Hackarest","Latitude":44.48374108338162,"Longitude":26.04477529720474,"Status":"active"}},{"id":"rec5zjGgWpTmEyfIt","fields":{"Club Name":"With my close friends, community","Latitude":-33.9770443,"Longitude":18.6737145,"Status":"active"}},{"id":"rec61lv7hnqh43uNA","fields":{"Club Name":"Peak to Peak Charter High School","Latitude":39.9875123,"Longitude":-105.085918,"Status":"active"}},{"id":"rec62X86mLx89b0Wc","fields":{"Club Name":"Oklahoma School of Science and Mathematics","Latitude":35.47917113461012,"Longitude":-97.5057992,"Status":"active"}},{"id":"rec65OqLe897lpn64","fields":{"Club Name":"Government Polytechnic,Ahmedabad","Latitude":23.0270906,"Longitude":72.5447275,"Status":"inactive"}},{"id":"rec692fAKJ0H6xTrn","fields":{"Club Name":" Presidential Initiative for Artificial Intelligence & Computing (PIAIC) Islamabad","Latitude":33.6952308,"Longitude":73.0128546,"Status":"inactive"}},{"id":"rec69lGRB5Bo7jXiZ","fields":{"Club Name":"Bergen County Academies CS Lab","Latitude":40.87188310002561,"Longitude":-73.96720997936124,"Status":"active"}},{"id":"rec6AhaX1XQUHZRMP","fields":{"Club Name":"Calera High School","Latitude":33.0921701,"Longitude":-86.7672468,"Status":"inactive"}},{"id":"rec6AkZcAfOHPeIT7","fields":{"Club Name":"Summit Strivers","Latitude":30.063872288908698,"Longitude":-1.948195680467963,"Status":"active"}},{"id":"rec6BVj2XUL83oilK","fields":{"Club Name":"Reddam House","Latitude":-33.885004,"Longitude":151.276269,"Status":"inactive"}},{"id":"rec6CPk2r0k59h8PG","fields":{"Club Name":"Lucknow Public School, sector-B, Unnao ","Latitude":26.52798845388659,"Longitude":80.48609767533932,"Status":"active"}},{"id":"rec6D6m243acmJPu1","fields":{"Club Name":"sanabil Iqraa high school","Latitude":32.32264649827189,"Longitude":-6.2811805,"Status":"active"}},{"id":"rec6EWVL3MWfHRzho","fields":{"Club Name":"KIT-KalaignarKarunanidhi Institute Of Technology","Latitude":10.9926607,"Longitude":77.083787,"Status":"inactive"}},{"id":"rec6GzSrx17fGPg0D","fields":{"Club Name":"Ruben S. Ayala High School","Latitude":33.9907327,"Longitude":-117.7326827,"Status":"unknown"}},{"id":"rec6IR91UxBi8eazv","fields":{"Club Name":"James B. Conant High School","Latitude":42.037327399999995,"Longitude":-88.06276165417123,"Status":"inactive"}},{"id":"rec6ORrpKJxwGl8w9","fields":{"Club Name":"Quarry Lane School","Latitude":37.7279472,"Longitude":-121.86985622304184,"Status":"inactive"}},{"id":"rec6QgdvrlhkJujDj","fields":{"Club Name":"St. Paul College Q.C.","Latitude":33.9908334,"Longitude":-118.4257231,"Status":"inactive"}},{"id":"rec6REkI6s2w3WF7Y","fields":{"Club Name":"AnorakS Community","Latitude":7.3748664,"Longitude":3.9419736,"Status":"inactive"}},{"id":"rec6SZJQU1K9ruTue","fields":{"Club Name":"LinkScape","Latitude":31.221518,"Longitude":121.54438,"Status":"active"}},{"id":"rec6WtW4rvLywwUEt","fields":{"Club Name":"Gatik Junior College","Latitude":17.504018060292605,"Longitude":78.19482150183623,"Status":"active"}},{"id":"rec6bdm3Bo8710auP","fields":{"Club Name":"75. Yıl Ortaokulu","Latitude":41.16489259999999,"Longitude":29.6054957,"Status":"inactive"}},{"id":"rec6cJTUO5U9hIhDl","fields":{"Club Name":"Hitkari College Of Education, Mandola, Haryana","Status":"inactive"}},{"id":"rec6kyUF6H5U1gtZM","fields":{"Club Name":"Thomas Sprigg Wootton HS","Latitude":39.07735643381213,"Longitude":-77.18248285926084,"Status":"active"}},{"id":"rec6lUerjxuReOs1i","fields":{"Club Name":"School of Engineering and Applied Science","Latitude":23.045977,"Longitude":72.539389,"Status":"inactive"}},{"id":"rec6s1YziVnLhjDvo","fields":{"Club Name":"Roosevelt High School","Latitude":47.677139,"Longitude":122.312861,"Status":"active"}},{"id":"rec6tRRl6Fh1XorB4","fields":{"Club Name":"Gymnasium Athenaeum Stade","Latitude":53.59077939936815,"Longitude":9.472132611827288,"Status":"active"}},{"id":"rec6tiVhGvQZkWe9C","fields":{"Club Name":"Kwara State University","Status":"inactive"}},{"id":"rec6v4Crd0gkDUYln","fields":{"Club Name":"Eric Hamber Secondary School","Latitude":49.240391408544525,"Longitude":-123.12518151226787,"Status":"active"}},{"id":"rec6vCBD52tY8cned","fields":{"Club Name":"Merchant Taylors School","Status":"active"}},{"id":"rec6yz47y1nyy9hK3","fields":{"Club Name":"Rosemead High School","Latitude":34.08365800701759,"Longitude":-118.07104720499748,"Status":"unknown"}},{"id":"rec72WRkz4lbXQNUd","fields":{"Club Name":"Northwest Hacks","Latitude":39.14976327694299,"Longitude":-77.27974270232593,"Status":"active"}},{"id":"rec76aDzy72nUSNt1","fields":{"Club Name":"Lucknow  Public School","Latitude":29.9385883,"Longitude":78.1329253,"Status":"inactive"}},{"id":"rec77pM2WfYi4IFk9","fields":{"Club Name":"Government Engineering College Barton Hill","Latitude":8.5057578,"Longitude":76.9405398,"Status":"inactive"}},{"id":"rec77q7WJkExlzakJ","fields":{"Club Name":"In our college ( Arya College of Engineering & IT Jaipur )","Latitude":27.0309059,"Longitude":75.8930922,"Status":"inactive"}},{"id":"rec7BegIg4bJUBwZQ","fields":{"Club Name":"Rolla Senior High School","Latitude":37.9500192,"Longitude":-91.7666611,"Status":"inactive"}},{"id":"rec7CrVfqMZnXvFRI","fields":{"Club Name":"Jashore Zilla School","Latitude":23.1603163,"Longitude":89.2065034,"Status":"inactive"}},{"id":"rec7DVpvU0CXwJ5dM","fields":{"Club Name":"CMHSS 1","Status":"inactive"}},{"id":"rec7FBCfVUyO8eaoe","fields":{"Club Name":"Nunthorpe Sixth Form","Latitude":54.530656450425816,"Longitude":-1.1625099926023277,"Status":"active"}},{"id":"rec7GIIjOzn7TGvZN","fields":{"Club Name":"Cantt Public Boys College","Latitude":31.528414652757284,"Longitude":74.3765241490774,"Status":"active"}},{"id":"rec7HwR9Q8j9jWjx5","fields":{"Club Name":"Up and Atom STEM Club","Latitude":16.702249576869814,"Longitude":74.21864154056153,"Status":"active"}},{"id":"rec7JmhN0Aow4qy76","fields":{"Club Name":"Sunbeam School Bhagwanpur","Latitude":25.2732753,"Longitude":83.000869,"Status":"active"}},{"id":"rec7LWgX0ez0aqgYC","fields":{"Club Name":"H.G International School, St. John's School","Status":"inactive"}},{"id":"rec7MwBeALvVf84Ww","fields":{"Club Name":"Presidium School Gurgaon","Latitude":28.4253544,"Longitude":77.06304709999999,"Status":"inactive"}},{"id":"rec7NLL9yUG12wtcK","fields":{"Club Name":"The Indian International School","Latitude":25.115675489224103,"Longitude":55.375826842328955,"Status":"active"}},{"id":"rec7NixGQCdXqYnz9","fields":{"Club Name":"École secondaire catholique Père-Philippe-Lamarche","Latitude":43.7395695,"Longitude":-79.24110383541617,"Status":"inactive"}},{"id":"rec7OqwfZRBqFmckI","fields":{"Club Name":"Penticton Secondary School","Latitude":49.49266118813705,"Longitude":-119.58745862741415,"Status":"active"}},{"id":"rec7QVYPsIn7TZGRb","fields":{"Club Name":"Westlake High School","Latitude":30.276376570674174,"Longitude":-97.81248398465576,"Status":"active"}},{"id":"rec7RcOqTMK0nkXhS","fields":{"Club Name":"Deer Park High School","Latitude":29.70336,"Longitude":-95.118445,"Status":"active"}},{"id":"rec7Repmz2NK0s2A4","fields":{"Club Name":"LOGIGATE","Latitude":28.968507,"Longitude":77.13778,"Status":"inactive"}},{"id":"rec7TWhgZ5edVept6","fields":{"Club Name":"Hackropolis","Latitude":37.9839412,"Longitude":23.7283052,"Status":"inactive"}},{"id":"rec7XHmDVXKc7uIzI","fields":{"Club Name":"Alkarma International School ","Latitude":29.98676243128374,"Longitude":31.327305296644777,"Status":"active"}},{"id":"rec7e5eCoaSLnvKFO","fields":{"Club Name":"KMCT Calicut","Status":"inactive"}},{"id":"rec7ewH0936hGD9F0","fields":{"Club Name":"DC Model senior secondary school ","Status":"active"}},{"id":"rec7jCePJQ7RQZEn9","fields":{"Club Name":"St Bartholomew's School","Latitude":51.392035454846486,"Longitude":-1.333156035180154,"Status":"active"}},{"id":"rec7jqYdxVCLVLSDx","fields":{"Club Name":"Brooklyn Technical High School","Latitude":40.6887573,"Longitude":-73.97640887345645,"Status":"inactive"}},{"id":"rec7kAO3wUf3x8zcl","fields":{"Club Name":"Juanita High School","Latitude":47.716566934028855,"Longitude":-122.19958943069187,"Status":"active"}},{"id":"rec7mFxstdR3HAD0w","fields":{"Club Name":"Oak Grove High School","Latitude":37.25290917055063,"Longitude":-121.81988805767281,"Status":"active"}},{"id":"rec7mcTp6FTWdPle5","fields":{"Club Name":"Shri Shankaracharya Group of Institutions, Junwani","Latitude":21.2166169,"Longitude":81.3203621,"Status":"inactive"}},{"id":"rec7mfVuMf2C72RBk","fields":{"Club Name":"MP International School","Latitude":12.548459260884092,"Longitude":74.98359941534207,"Status":"active"}},{"id":"rec7mw9kL7ZQE0xzX","fields":{"Club Name":"Miramonte High School","Latitude":37.84127229169582,"Longitude":-122.1454565693115,"Status":"active"}},{"id":"rec7qtRvkHLxIMnGu","fields":{"Club Name":"Jalandhar","Status":"active"}},{"id":"rec7rV99BV2b7NPg6","fields":{"Club Name":"Hack Club Indore","Latitude":22.73619019397166,"Longitude":75.92538632198185,"Status":"active"}},{"id":"rec7sRXrjkwST7H5c","fields":{"Club Name":"I think I'll make a voting about it with the future folks.","Latitude":31.901086049478636,"Longitude":35.018335628296654,"Status":"active"}},{"id":"rec7sgkKc1RoJLmf5","fields":{"Club Name":"Big Brains","Status":"active"}},{"id":"rec7u5bf7icq8W9Ny","fields":{"Club Name":"Modhumoti Technical And Commercial College ","Latitude":23.0302853,"Longitude":89.63025429999999,"Status":"inactive"}},{"id":"rec7vctSevgMfOwct","fields":{"Club Name":"Mes college of engineering Kuttippuram","Latitude":10.8276241,"Longitude":76.03566219999999,"Status":"inactive"}},{"id":"rec7w6PC7WuH6t1LZ","fields":{"Club Name":"John Hersey High School","Status":"active"}},{"id":"rec7wFQRH1qwdOm41","fields":{"Club Name":"Mastercode","Status":"inactive"}},{"id":"rec7yuRAhOGRqTGC1","fields":{"Club Name":"Vellore Institute of Technology","Latitude":12.971743,"Longitude":79.15941649999999,"Status":"inactive"}},{"id":"rec80spbzuWRDiHvO","fields":{"Club Name":"Solon Codes","Latitude":41.377791921754785,"Longitude":-81.44211098273647,"Status":"active"}},{"id":"rec82qK6qH9wmYAXL","fields":{"Club Name":"Baltimore Polytechnic Institute ","Latitude":40.2090373,"Longitude":-75.09861839999999,"Status":"unknown"}},{"id":"rec83M1nR00ErwdTh","fields":{"Club Name":"Tartan High School","Latitude":44.96085175290351,"Longitude":-92.97147042653678,"Status":"active"}},{"id":"rec8JzfB6GA0MtGkq","fields":{"Club Name":"University of Ghana","Latitude":5.650562,"Longitude":-0.1962244,"Status":"inactive"}},{"id":"rec8KHAzH1BzRYTIx","fields":{"Club Name":"Florida Virtual School Full Time High School","Latitude":28.5189864,"Longitude":-81.46780620000001,"Status":"inactive"}},{"id":"rec8MLQH86u1DT5Po","fields":{"Club Name":"Jamia Hamdard University","Latitude":28.5154778,"Longitude":77.2504898,"Status":"inactive"}},{"id":"rec8NHEPgEBy8c5sV","fields":{"Club Name":"Ruth Evelyn Cruz Santos Professional Higher School","Latitude":18.168205155985525,"Longitude":-66.16229888994732,"Status":"active"}},{"id":"rec8OhxwxusksSguU","fields":{"Club Name":"Citadel High School","Latitude":44.7342451282045,"Longitude":-63.579088382213385,"Status":"active"}},{"id":"rec8PBaxBndzDgoXG","fields":{"Club Name":"Elkhorn North High School ","Latitude":41.29788130231194,"Longitude":-96.1942834577357,"Status":"active"}},{"id":"rec8TKzgrqu1inJKz","fields":{"Club Name":"COMSATS University Sahiwal","Latitude":30.6416211,"Longitude":73.149107,"Status":"inactive"}},{"id":"rec8UOJOCRQnxIgKC","fields":{"Club Name":"Sathyabama Institute of Science and Technology","Latitude":12.8713359,"Longitude":80.222405,"Status":"inactive"}},{"id":"rec8XmEmBGAgulkiu","fields":{"Club Name":"Fairmont Preparatory Academy","Latitude":33.84400528360509,"Longitude":-117.96015573471466,"Status":"active"}},{"id":"rec8Y6VA6XlWSoRv1","fields":{"Club Name":"Lahore Grammar School Gulberg","Latitude":31.485803675781558,"Longitude":74.35483062492831,"Status":"active"}},{"id":"rec8YyNUuILCoOMCE","fields":{"Club Name":"Lowell High School","Latitude":37.72921235,"Longitude":-122.48293370806712,"Status":"active"}},{"id":"rec8bVCK0txo9Y3gr","fields":{"Club Name":"TAPIE","Latitude":37.542534092916824,"Longitude":126.96656442868947,"Status":"active"}},{"id":"rec8g7SAt9HLt1WL5","fields":{"Club Name":"NIT Raipur","Latitude":21.2511149,"Longitude":81.5999298,"Status":"inactive"}},{"id":"rec8lhoeIykZRWIMi","fields":{"Club Name":"Jagiellon BitBrewers","Latitude":52.91926871767285,"Longitude":22.51783846745813,"Status":"active"}},{"id":"rec8loxMJcNP9lus6","fields":{"Club Name":"Parul University","Latitude":22.293194,"Longitude":73.3472901,"Status":"inactive"}},{"id":"rec8m7Xc575TKRsKa","fields":{"Club Name":"Richmond Hill Hack Club","Status":"active"}},{"id":"rec8mBpT1GWLC1qEK","fields":{"Club Name":"Hack Club Mauritius","Latitude":-20.3484,"Longitude":57.5522,"Status":"active"}},{"id":"rec8nId0iuemwYj3q","fields":{"Club Name":"Franky Comprehensive Secondary School","Latitude":3.8480325,"Longitude":11.5020752,"Status":"inactive"}},{"id":"rec8pyS1YWA5gUXo2","fields":{"Club Name":"Walter Johnson High School","Latitude":39.0257625,"Longitude":-77.13051879999999,"Status":"active"}},{"id":"rec8tRJAsLbQpiK8Y","fields":{"Club Name":"Colonel By Secondary School","Latitude":45.4552945,"Longitude":-75.60030438060633,"Status":"inactive"}},{"id":"rec8uA2qGygeDk35Q","fields":{"Club Name":"Sukkur IBA University","Latitude":27.7262563,"Longitude":68.8193796,"Status":"inactive"}},{"id":"rec8uNlgyxCM82kzT","fields":{"Status":"inactive"}},{"id":"rec8vfpuBHxnhmm6q","fields":{"Club Name":"Lampton School Academy","Status":"inactive"}},{"id":"rec8w0KCvhQgLhaPR","fields":{"Club Name":" Coliseum College Prep Academy","Latitude":37.76154454623595,"Longitude":-122.1929728194221,"Status":"active"}},{"id":"rec8w9larT4gvD05U","fields":{}},{"id":"rec8y9K6hlNV68EK1","fields":{"Club Name":"Sri Guru Gobind Singh College of Commerce","Latitude":28.6922224,"Longitude":77.1506734,"Status":"inactive"}},{"id":"rec8ybIsahNIg0lsG","fields":{"Club Name":"Hack Club Khagaria","Latitude":25.50550763519197,"Longitude":86.4692971535669,"Status":"active"}},{"id":"rec90sDNBm0i6cgay","fields":{"Club Name":"HackGleb","Latitude":41.065207136017534,"Longitude":-8.575882257672781,"Status":"active"}},{"id":"rec9462XEPa9ihFIA","fields":{"Club Name":"UWC Dilijan College","Latitude":40.743099906701055,"Longitude":44.867370067042074,"Status":"active"}},{"id":"rec95bisdYE9m2f68","fields":{"Club Name":"Nagarjuna College Of Engineering & Technology","Latitude":13.3273361,"Longitude":77.7334051,"Status":"inactive"}},{"id":"rec96NbAb8pxROrBr","fields":{"Club Name":"Hawken School","Latitude":41.52618069668604,"Longitude":-81.38549898465575,"Status":"active"}},{"id":"rec9A3VhTzuo18sJi","fields":{"Club Name":"Alliance Gertz-Ressler High School","Latitude":34.0365645,"Longitude":-118.2830667,"Status":"active"}},{"id":"rec9Na2rMQcDhu3xe","fields":{"Club Name":"Bowmanville High School","Latitude":43.91504279999999,"Longitude":-78.67958829999999,"Status":"active"}},{"id":"rec9OD4RMPkTX2enX","fields":{"Club Name":"Roosevelt High School","Latitude":47.6777263,"Longitude":-122.3132558,"Status":"inactive"}},{"id":"rec9OfhTXc7IX8OKA","fields":{"Club Name":"Central Peel Secondary School","Latitude":43.6982204,"Longitude":-79.75128629999999,"Status":"active"}},{"id":"rec9WvvQXGkYzqnDG","fields":{"Club Name":"Northrise University ","Latitude":-12.9726256,"Longitude":28.6061359,"Status":"inactive"}},{"id":"rec9XOt3FU105dr55","fields":{"Club Name":"Control Alt Elite","Status":"active"}},{"id":"rec9ZpbqT3TEwpAru","fields":{"Club Name":"Atal tinkering lab (ATL)","Latitude":24.197915347425266,"Longitude":82.67436596710719,"Status":"active"}},{"id":"rec9c5SLEgt3MvJGp","fields":{"Club Name":"Online for now","Status":"inactive"}},{"id":"rec9c7WbJNHRh2Jyh","fields":{"Club Name":"SAR High School","Latitude":40.9071846,"Longitude":-73.90474789999999,"Status":"inactive"}},{"id":"rec9eyKmjhl9tiCYD","fields":{"Club Name":"CODEFORCE","Latitude":-1.9448349007350691,"Longitude":30.0887925962633,"Status":"active"}},{"id":"rec9gSus5JqTMvIoz","fields":{"Club Name":"Pune Institute of Computer Technology","Latitude":18.4575421,"Longitude":73.8508336,"Status":"inactive"}},{"id":"rec9goNIMzBHxYIVh","fields":{"Club Name":"Carmel High School","Latitude":39.9799754,"Longitude":-86.119833,"Status":"active"}},{"id":"rec9j2LkujWQpJbPU","fields":{"Club Name":"Chirec International School - ISRP Campus","Latitude":17.47760469243393,"Longitude":78.3346918346614,"Status":"active"}},{"id":"rec9kjMBIDuVi4M3v","fields":{"Club Name":"Nexus","Latitude":28.6589969,"Longitude":77.32388259999999,"Status":"active"}},{"id":"rec9mIERayR8Je352","fields":{"Club Name":"St Joseph Catholic High School","Latitude":45.26337927826448,"Longitude":-75.74117028465749,"Status":"active"}},{"id":"rec9mh0Q463nKTyL3","fields":{"Club Name":"Aloha College Marbella","Latitude":36.510818,"Longitude":-4.953643,"Status":"inactive"}},{"id":"rec9o17G2X0JRA8Te","fields":{"Club Name":"The Affiliated Jhongli Senior High School of National Central University","Latitude":24.96239764513248,"Longitude":121.21105138465673,"Status":"active"}},{"id":"rec9o1aqqKOCAarrr","fields":{"Club Name":"Elite Scholars Academy","Latitude":33.53980544690917,"Longitude":-84.32565997726006,"Status":"active"}},{"id":"rec9rboz3gJy3EYgU","fields":{"Club Name":"Queen Elizabeth's School","Latitude":51.5836021,"Longitude":-0.3515053,"Status":"inactive"}},{"id":"rec9slT0EnEhdSq35","fields":{"Club Name":"Lagos state polytechnic","Latitude":6.6194131,"Longitude":3.5104537,"Status":"inactive"}},{"id":"rec9uDwSgPkB4a0LH","fields":{"Club Name":"Sree Buddha College of Engineering Alappuzha","Latitude":9.215394,"Longitude":76.63055,"Status":"inactive"}},{"id":"rec9xIGpjEAMLeISS","fields":{"Club Name":"Saint Xavier High School","Latitude":38.2190021,"Longitude":-85.72659974281711,"Status":"active"}},{"id":"recA0SMA6mRWfwNnG","fields":{"Club Name":"Integrated Institute Of Technology","Latitude":28.5761299,"Longitude":77.0690109,"Status":"inactive"}},{"id":"recA2HLHC4Wcfo78M","fields":{"Club Name":"Cameron Heights Collegiate Institute ","Latitude":43.4450926254775,"Longitude":-80.4819244306919,"Status":"active"}},{"id":"recA2iOLPWZxlxxq9","fields":{"Club Name":"Markham District High School","Latitude":43.88040702772873,"Longitude":-79.25039428465406,"Status":"active"}},{"id":"recA3OFM2KhhZmQAu","fields":{"Club Name":"Modern Public School","Latitude":28.1924513,"Longitude":76.854799,"Status":"inactive"}},{"id":"recA5oHydRB6cslZs","fields":{"Club Name":"Government Engineering College, Bilaspur ","Latitude":22.1293214,"Longitude":82.1360026,"Status":"inactive"}},{"id":"recAAW513ZrpYeAS3","fields":{"Club Name":"Ganpat University","Latitude":23.5292875,"Longitude":72.4577363,"Status":"inactive"}},{"id":"recADdYkYYUmTl8Mi","fields":{"Club Name":"James Martin High School","Latitude":32.68738755,"Longitude":-97.17998,"Status":"active"}},{"id":"recAFQoKUQvCMUVGJ","fields":{"Club Name":"Composite","Latitude":28.602350610201,"Longitude":77.3337729,"Status":"active"}},{"id":"recAGED2FdiPNL8o5","fields":{"Club Name":"Delhi Public School","Latitude":26.5090482,"Longitude":80.2914991,"Status":"inactive"}},{"id":"recAINNMu6bbVwIKk","fields":{"Club Name":"Tanzania Combine","Latitude":-6.792354,"Longitude":39.2083284,"Status":"inactive"}},{"id":"recAMqKyY3UAQdgJt","fields":{"Club Name":"Future Language School 12","Latitude":300308.3,"Longitude":311417.3,"Status":"active"}},{"id":"recAQIDyU0LKDMe9g","fields":{"Club Name":"Greenwood College School","Latitude":43.700119331068,"Longitude":-79.38607122815108,"Status":"active"}},{"id":"recATbiOkP43b2myI","fields":{"Club Name":"Sal Institute of Technology and Engineering Research","Latitude":23.0713863,"Longitude":72.5161694,"Status":"inactive"}},{"id":"recAUgBMJ9CsqDbbH","fields":{"Club Name":"Sharda University -Uzbekistan","Latitude":40.8153561,"Longitude":72.28375,"Status":"inactive"}},{"id":"recAWEgPYIgS7Y332","fields":{"Club Name":"Proof School","Latitude":37.78160559779848,"Longitude":-122.40775654220747,"Status":"active"}},{"id":"recAXZzfbeDoOilJo","fields":{"Club Name":"Claremont secondary school","Latitude":48.5159339,"Longitude":-123.3751858,"Status":"active"}},{"id":"recAYmWyZsFOslKzT","fields":{"Club Name":"Jose Marti STEM Academy","Latitude":40.7660354,"Longitude":-74.03779892703234,"Status":"inactive"}},{"id":"recAZ6Ie0v2AqzxcU","fields":{"Club Name":"Monroe Township Public Library","Latitude":40.41219435424878,"Longitude":-74.42895693138358,"Status":"active"}},{"id":"recAbYUJdDTCe2ZOA","fields":{"Club Name":"John C. Kimball High School ","Latitude":37.7318953,"Longitude":-121.4734687,"Status":"inactive"}},{"id":"recAgO9iBpsvLQmIw","fields":{"Club Name":"School of Engineering and Technology,Lahore","Latitude":31.5834002,"Longitude":74.3579922,"Status":"active"}},{"id":"recAhjgpZEL2ds8Kh","fields":{"Club Name":"New Canaan High School","Latitude":41.129795,"Longitude":-73.4886597,"Status":"active"}},{"id":"recAqWCBgXy8WuPq1","fields":{"Club Name":"Zambia Information and Communications Technology College","Latitude":-12.9469671,"Longitude":28.6389648,"Status":"inactive"}},{"id":"recAqWgUu1G9uIz6W","fields":{"Club Name":"Clear Horizons Early College High School","Latitude":29.5790343,"Longitude":-95.2044672,"Status":"unknown"}},{"id":"recAqcdTSxZzdTP0j","fields":{"Club Name":"Olentangy Hack Club","Latitude":40.190341572562886,"Longitude":-83.02739535648514,"Status":"active"}},{"id":"recAtGrqMYQ6WZLhX","fields":{"Club Name":"LBS Kasaragod","Status":"inactive"}},{"id":"recAvPL4hPbtXKh68","fields":{"Club Name":"DE-CODE","Latitude":28.7268157,"Longitude":77.2166015,"Status":"active"}},{"id":"recAxOpiQ4wKn7KfC","fields":{"Club Name":"Rythmastic Zone ","Latitude":23.517364,"Longitude":77.800549,"Status":"inactive"}},{"id":"recAxYYTgaQbBiPBC","fields":{"Club Name":"Sanskriti School","Latitude":28.589405575900077,"Longitude":77.17737556909603,"Status":"active"}},{"id":"recB3F6HYqczgvXLL","fields":{"Club Name":"Code the Stars","Latitude":40.26179203098301,"Longitude":-74.54340918940778,"Status":"active"}},{"id":"recB3d4eAzLkGYGSA","fields":{"Club Name":"Philippine Science High School - Central Luzon Campus","Latitude":15.1925199,"Longitude":120.535365,"Status":"inactive"}},{"id":"recB3yQR2XHCRujt3","fields":{"Club Name":"Hicksville High School","Latitude":40.75799019999999,"Longitude":-73.5277552,"Status":"active"}},{"id":"recB7AOQjKRtXYq82","fields":{"Club Name":"Lynbrook High School","Latitude":37.30135755594207,"Longitude":-122.005409001853,"Status":"active"}},{"id":"recB9AWJDqns7L1i0","fields":{"Club Name":"Copperbelt University","Latitude":-12.8231947,"Longitude":28.2175744,"Status":"inactive"}},{"id":"recBACaEgIawMkCm4","fields":{"Club Name":"NSUT East Campus","Status":"inactive"}},{"id":"recBAmx1g9KohWf7U","fields":{"Club Name":"Sister Nivedita University","Latitude":22.5806455,"Longitude":88.4761115,"Status":"inactive"}},{"id":"recBE6kMSKo8mlYGD","fields":{"Club Name":"Burlington High School ","Latitude":42.49656111037591,"Longitude":-71.19760325029091,"Status":"active"}},{"id":"recBFIsZf3I7T9Lpp","fields":{"Club Name":"Jyothis","Status":"inactive"}},{"id":"recBKDlgn7Wr94UM5","fields":{"Club Name":"College of Engineering Trivandrum","Latitude":8.545851299999999,"Longitude":76.9063407,"Status":"inactive"}},{"id":"recBKlSqgWqi5QVD7","fields":{"Club Name":"Whiznet Inc","Latitude":6.680441399999999,"Longitude":3.1415605,"Status":"inactive"}},{"id":"recBPAsYwQV2loxRw","fields":{"Club Name":"Shanghai Leighton School","Latitude":312030.6,"Longitude":1210810,"Status":"active"}},{"id":"recBTKE53VTvroPos","fields":{"Club Name":"Istituto Tecnico Industriale Statale Lucarelli","Latitude":41.134348806332724,"Longitude":14.769686155822255,"Status":"active"}},{"id":"recBTwmeAsEjecXEL","fields":{"Club Name":"It's at our house","Latitude":42.92708658230196,"Longitude":-83.63027357786729,"Status":"active"}},{"id":"recBW4wgnag6sZNit","fields":{"Club Name":"Rwanda Coding Academy","Latitude":-1.6109337,"Longitude":29.4998944,"Status":"inactive"}},{"id":"recBZCM6UJjhHFMzo","fields":{"Club Name":"St. Vincent Pallotti College of Engineering and Technology","Status":"inactive"}},{"id":"recBcGIBM58lXBa4d","fields":{"Club Name":"Seaport Developers","Latitude":55.66666379132232,"Longitude":21.165606997837973,"Status":"active"}},{"id":"recBcdvBeeLpfUOfS","fields":{"Club Name":"Blacktown Boys High School","Latitude":-33.761485159099124,"Longitude":150.91228443069187,"Status":"active"}},{"id":"recBfXk7VVGM8ptxy","fields":{"Club Name":"Lincoln M.Alexander Secondary School","Latitude":43.7244561,"Longitude":-79.64021029999999,"Status":"active"}},{"id":"recBgkwnDpQ2ZisoS","fields":{"Club Name":"Open Source Technology Institute","Latitude":-25.5116189,"Longitude":-49.3199389,"Status":"inactive"}},{"id":"recBhSB08TspyKSnM","fields":{"Club Name":"Lovely Professional University","Latitude":31.2231589,"Longitude":75.7670466,"Status":"inactive"}},{"id":"recBiWXKqNyXuYURR","fields":{"Club Name":"Chicopee comp","Latitude":42.1769711532334,"Longitude":-72.59189798280948,"Status":"active"}},{"id":"recBkixlpELf1ZFQp","fields":{"Club Name":"KMS (Kenmore Middle School) Computer Club","Latitude":47.77620384450012,"Longitude":-122.25512476138026,"Status":"inactive"}},{"id":"recBll7peyakC5B5S","fields":{"Club Name":"Darshan Institute of Engineering and Technology","Latitude":22.7955105,"Longitude":70.8108398,"Status":"inactive"}},{"id":"recBmCYYzXBxykeid","fields":{"Club Name":"Escola Internacional Unisociesc","Latitude":-27.5944048,"Longitude":-48.4937181,"Status":"unknown"}},{"id":"recBmDgvwHr8k1LYF","fields":{"Club Name":"Ready! Set! Code!","Latitude":28.8178814511022,"Longitude":31.35695509893304,"Status":"active"}},{"id":"recBnL6W2qhft2rdk","fields":{"Club Name":"Coders Unite!","Latitude":44.9096123087088,"Longitude":-93.51084094392778,"Status":"active"}},{"id":"recBof8eYQkOTjvtK","fields":{"Club Name":"Bridgeport High School","Latitude":40.06972721158497,"Longitude":-80.77736221534595,"Status":"active"}},{"id":"recBrNuBp45hVGaJd","fields":{"Club Name":"ST. JOSEPH S HSS","Status":"inactive"}},{"id":"recBun4W6zZBqBVTN","fields":{"Club Name":"Instituto Tecnico Nacional de Comercio","Latitude":7.1028894,"Longitude":-73.1303808,"Status":"inactive"}},{"id":"recBxI5RVuyDQSVNd","fields":{"Club Name":"Germantown High School","Latitude":32.53516577974372,"Longitude":-90.10446474961438,"Status":"active"}},{"id":"recByRWYdqCAxwzSY","fields":{"Club Name":"Kalinga Institute of Industrial Technology","Latitude":20.3538575,"Longitude":85.816958,"Status":"inactive"}},{"id":"recC09Q5a5h5ezM1w","fields":{"Club Name":"St. Mary's High School","Latitude":19.0820121,"Longitude":72.9957879,"Status":"inactive"}},{"id":"recC5p00p9lsMwxUA","fields":{"Club Name":"Epoch0","Latitude":12.982049230183451,"Longitude":77.58286004665274,"Status":"active"}},{"id":"recCCtCr34jfcO2b7","fields":{"Club Name":"KIET GROUP OF INSTITUTIONS","Status":"inactive"}},{"id":"recCDFQLcnBQ87K2l","fields":{"Club Name":"MHHS Hackathon Club","Latitude":37.7647551,"Longitude":-121.5463444,"Status":"active"}},{"id":"recCEU2SKSjWUUB4a","fields":{"Club Name":"CMH Hack Club","Latitude":43.00152938557286,"Longitude":-88.21996183220912,"Status":"active"}},{"id":"recCMqKY3eizxHc1j","fields":{"Club Name":"LGS JT HackLab","Latitude":31.469732449382313,"Longitude":74.2911957767225,"Status":"inactive"}},{"id":"recCP83izoBXHyPxr","fields":{"Club Name":"Istanbul Bahcesehir High School for Science and Technology","Status":"active"}},{"id":"recCQhUmFz1JWbY8D","fields":{"Status":"inactive"}},{"id":"recCTm5VGwwOQa8pG","fields":{"Club Name":"Dark Ace","Latitude":6.4368729,"Longitude":2.8926342,"Status":"inactive"}},{"id":"recCUFVzZ2USvr8Tv","fields":{"Club Name":"Merrill F. West High School","Latitude":37.74865930244926,"Longitude":-121.44729968465748,"Status":"active"}},{"id":"recCUcpmyRRo9pOnr","fields":{"Club Name":" Lindblom Math and Science Academy","Latitude":41.782231806011374,"Longitude":-87.6718901,"Status":"active"}},{"id":"recCWgmEDNT7NAPuD","fields":{"Club Name":"Dr .d.y.patil school of engineering, talegaon, pune","Latitude":18.755332,"Longitude":73.6683894,"Status":"inactive"}},{"id":"recCXA0el0zquv4Mr","fields":{"Club Name":"International School of Geneva, LGB","Latitude":46.199416527535355,"Longitude":6.1720299441787985,"Status":"active"}},{"id":"recCaF72yceD3gsXP","fields":{"Club Name":"Coding Hack","Latitude":28.3628851,"Longitude":79.4080955,"Status":"inactive"}},{"id":"recCav5xP3JPiYQxn","fields":{"Club Name":"Nyíregyházi SZC Széchenyi István Technikum és Kollégium","Latitude":47.96539736313299,"Longitude":21.704527537019093,"Status":"active"}},{"id":"recCd1yqiktoaT0ez","fields":{"Club Name":"Epicentre Intelligence","Latitude":27.695806696119824,"Longitude":85.3374281998851,"Status":"active"}},{"id":"recCdSvE1sZ3hMVAY","fields":{"Club Name":"Patna University","Status":"inactive"}},{"id":"recCg0MpCHhdtALJH","fields":{"Club Name":"Digital University of Kerala (former Indian Institute of Information Technology and Management Kerala, IIITM-K)","Status":"inactive"}},{"id":"recCg1QyW2RKp3jsT","fields":{"Club Name":"Bellevue Big Picture School","Latitude":47.592074,"Longitude":-122.1412057,"Status":"inactive"}},{"id":"recCjrNZtZEXrekGX","fields":{"Club Name":"Ramrao Adik Institute Of Technology","Latitude":19.0463238,"Longitude":73.0267377,"Status":"inactive"}},{"id":"recCl8FAcWkI5oo0u","fields":{"Club Name":"Yehia El Mashed School","Latitude":30.145075,"Longitude":31.275966,"Status":"active"}},{"id":"recCsGaH1mVEO3fKW","fields":{"Club Name":"Sacred Heart Academy ","Latitude":38.2508646,"Longitude":-85.6744564,"Status":"active"}},{"id":"recCu4QFdQxgphVUQ","fields":{"Club Name":"VCPCode","Latitude":-31.420790704053218,"Longitude":-64.49918566703198,"Status":"active"}},{"id":"recCu55ladBB2hp2D","fields":{"Club Name":"SIS Surabaya","Latitude":-7.285914665086431,"Longitude":112.69566344257333,"Status":"active"}},{"id":"recD0J3IH5Gq4jbtz","fields":{"Club Name":"Kogi state university ","Latitude":7.485843699999999,"Longitude":7.187395599999999,"Status":"inactive"}},{"id":"recD7HVnp3kZGsA6T","fields":{"Club Name":"John bowne high school","Latitude":40.73831655452444,"Longitude":-73.82401858999629,"Status":"active"}},{"id":"recD7bIBSIQqir80a","fields":{"Club Name":"Vignan's Institute of Engineering for Women","Latitude":17.7164761,"Longitude":83.1767607,"Status":"inactive"}},{"id":"recD8wLrZfsF3Y2aq","fields":{"Club Name":"Kambrya College","Latitude":-38.05432471104455,"Longitude":145.34630304441077,"Status":"active"}},{"id":"recD9AlWa27N0fWJL","fields":{"Club Name":"St. Patrick's Academy","Status":"inactive"}},{"id":"recDGmx2RRk4AHYrX","fields":{"Club Name":"Nlcs ","Latitude":1.281545,"Longitude":103.809782,"Status":"active"}},{"id":"recDHI57iWsRmbw51","fields":{"Club Name":"Seibu Gakuen Bunri High School","Latitude":35.890801400510625,"Longitude":139.4181770014265,"Status":"active"}},{"id":"recDI3VkeEjnNhAI3","fields":{"Club Name":"VIT Chennai","Latitude":12.7900248,"Longitude":80.2209156,"Status":"inactive"}},{"id":"recDIfavZYgc8kIWD","fields":{"Club Name":"New west charter","Latitude":34.0361209,"Longitude":-118.45539,"Status":"active"}},{"id":"recDJ4i5jL2PeKWUU","fields":{"Club Name":"KCC Institute of Technology and Management","Latitude":28.4696819,"Longitude":77.4931256,"Status":"inactive"}},{"id":"recDJBGzugfUmFT9a","fields":{"Club Name":"Sai Jyothi Nilayam","Latitude":17.740586,"Longitude":83.256417,"Status":"active"}},{"id":"recDJa6GQtypYhLF3","fields":{"Club Name":"Olympia High School","Latitude":47.018427700000004,"Longitude":-122.8826547728732,"Status":"active"}},{"id":"recDKqbJyFidhmW8U","fields":{"Club Name":"ATAL TINKERING LAB (ATL)","Latitude":25.150239472178345,"Longitude":75.8502324511512,"Status":"active"}},{"id":"recDL4bCnIs7gV70G","fields":{"Club Name":"Riverside STEM High School","Latitude":33.968424010313214,"Longitude":-117.31369613974478,"Status":"unknown"}},{"id":"recDLf5vV6oKHJsGU","fields":{"Club Name":"Independence High School","Latitude":37.3709527,"Longitude":-121.8560236,"Status":"active"}},{"id":"recDMF6BO9uhbpUhN","fields":{"Club Name":"Ormiston Sandwell Community Academy","Latitude":52.50997042254636,"Longitude":-2.0386470127727696,"Status":"active"}},{"id":"recDOdHaJpWN6A9jq","fields":{"Club Name":"HackWithMe, Pune","Latitude":18.4562441,"Longitude":73.8116138,"Status":"inactive"}},{"id":"recDPBtnqQmor91BZ","fields":{"Club Name":"Hitec University","Status":"inactive"}},{"id":"recDYKqgeV6vvXxMY","fields":{"Club Name":"Joseph. A Gregori High School","Latitude":37.72092109999999,"Longitude":-121.06160483437759,"Status":"active"}},{"id":"recDYzwHavH8evmeA","fields":{"Club Name":"The Martyr Ibraheem al-Rifaee Language School.","Latitude":30.0542219,"Longitude":31.4591871,"Status":"inactive"}},{"id":"recDZ1THdHQcY7aXY","fields":{"Club Name":"Hidden Valley High School","Latitude":37.22436133167343,"Longitude":-80.02380138465749,"Status":"active"}},{"id":"recDakQV3R4dQmjuN","fields":{"Club Name":"Smt. Sulochanadevi Singhania IB World School","Latitude":19.2173332,"Longitude":72.9541832,"Status":"active"}},{"id":"recDbrQ7kxii90Umr","fields":{"Club Name":"Green Mountain Geeks","Latitude":44.310266139461724,"Longitude":-73.25353833023532,"Status":"active"}},{"id":"recDf50fL3xqV3v89","fields":{"Club Name":"Sinhgad Institutes, Pune","Latitude":18.4601666,"Longitude":73.8114873,"Status":"inactive"}},{"id":"recDjEulz6nJfDv55","fields":{"Club Name":"Western Canada High School","Latitude":51.037414701835885,"Longitude":-114.07723157536961,"Status":"active"}},{"id":"recDppYyX7VuPeqL8","fields":{"Club Name":"Princeton High School","Latitude":40.357441,"Longitude":-74.6559212,"Status":"active"}},{"id":"recDsEc1W4voUXyTQ","fields":{"Club Name":"Garage Central (my home garage) - also at local high school","Status":"inactive"}},{"id":"recDsg2GG8R5g69bg","fields":{"Club Name":"Slash","Latitude":33.3777040510469,"Longitude":35.48113893084942,"Status":"active"}},{"id":"recDsqzXkYMcrVrJX","fields":{"Club Name":"Hodan Nalayeh Secondary School","Latitude":43.80526376655128,"Longitude":-79.46464731201807,"Status":"active"}},{"id":"recDu4seaDneXIo8t","fields":{"Club Name":"LUSAKA BOYS SECONDARY SCHOOL","Latitude":-15.4113501,"Longitude":28.3112844,"Status":"inactive"}},{"id":"recDyA1BxE8lNHBj3","fields":{"Club Name":"IFG - Campus Itumbiara","Latitude":-18.4353402,"Longitude":-49.2152235,"Status":"unknown"}},{"id":"recDyBJXKPzBeQesi","fields":{"Club Name":"Novi High School","Latitude":42.4635634,"Longitude":-83.4908576,"Status":"active"}},{"id":"recE3Xp6dhpZnzmuy","fields":{"Club Name":"Jadavpur University","Latitude":22.5001445,"Longitude":88.3715261,"Status":"inactive"}},{"id":"recE6X9GMpxuBqGTw","fields":{"Club Name":"Codex (Destion Innovations)","Latitude":16.981930287968247,"Longitude":82.22604088620166,"Status":"active"}},{"id":"recE7kH9phtdNHYxP","fields":{"Club Name":"DOOMED to never touch grass","Latitude":42.639957463163185,"Longitude":-73.96257460012771,"Status":"active"}},{"id":"recECVCw4qHtKAVJB","fields":{"Club Name":"Kulachi Hansraj Model School","Latitude":28.692803,"Longitude":77.173886,"Status":"inactive"}},{"id":"recEEhVqEcMtEln9u","fields":{"Club Name":"Clay County High School","Latitude":36.56088559345843,"Longitude":-85.51815725396725,"Status":"active"}},{"id":"recEGlicp1t8P2lpP","fields":{"Club Name":"Nutan Vidyamandir, Bhagur","Latitude":19.881523,"Longitude":73.8389657,"Status":"inactive"}},{"id":"recEHzUeQK2gLAh7v","fields":{"Club Name":"at home","Latitude":30.8723862,"Longitude":75.8762615,"Status":"active"}},{"id":"recENeovIhtqeoRjX","fields":{"Club Name":"Rocklin High School","Latitude":38.81300906481522,"Longitude":-121.2523978626767,"Status":"active"}},{"id":"recEP1NvreFsY7at5","fields":{"Club Name":"E.A. Young Academy","Latitude":32.90634906974823,"Longitude":-97.19202505294093,"Status":"unknown"}},{"id":"recEPH3sx8xhEUGJ5","fields":{"Club Name":"Orlando Science High School","Latitude":28.555892175213344,"Longitude":-81.41286588465574,"Status":"active"}},{"id":"recEUpv59JZIHlyzA","fields":{"Club Name":"FSDC","Status":"inactive"}},{"id":"recEUtBJCP85vyORV","fields":{"Club Name":"Franklin High School","Latitude":42.895964756356896,"Longitude":-87.97773169999999,"Status":"active"}},{"id":"recEcVuNyATAULsA8","fields":{"Club Name":"Leland High School","Latitude":37.216678,"Longitude":-121.84414276956957,"Status":"active"}},{"id":"recEdiexLR9Kc9OLB","fields":{"Club Name":"Air Force Golden Jubilee Institute","Latitude":28.581800583431864,"Longitude":77.14861106905734,"Status":"active"}},{"id":"recEeCRWXOZL6FJnw","fields":{"Club Name":"HackEmber","Latitude":-1.9778199997303245,"Longitude":30.0533261282379,"Status":"active"}},{"id":"recEeFMexw5FWpijJ","fields":{"Club Name":"American Heritage School of Boca-Delray","Latitude":26.4371916,"Longitude":-80.1403328,"Status":"inactive"}},{"id":"recEeWYQNRSb5hpog","fields":{"Club Name":"De Nobili School CMRI ","Status":"active"}},{"id":"recEhPLxYT5HssYb5","fields":{"Club Name":"Sree Buddha College of Engineering,Pattoor,Alappuzha,Kerala","Latitude":9.2125405,"Longitude":76.64239529999999,"Status":"inactive"}},{"id":"recEhYEGr2houeXU4","fields":{"Club Name":"Abbeygate Sixth Form College","Status":"active"}},{"id":"recElRgWp0Mf6TWma","fields":{"Club Name":"Tottenville High School","Latitude":40.528167,"Longitude":74.192889,"Status":"active"}},{"id":"recEmPtt1AcRQFPUJ","fields":{"Club Name":"Calera High School","Latitude":33.09218807709255,"Longitude":-86.76719315582326,"Status":"active"}},{"id":"recEmg2zgU65lbGfz","fields":{"Club Name":"University of Petroleum and Energy Studies","Latitude":30.3164945,"Longitude":78.03219179999999,"Status":"inactive"}},{"id":"recEowNP4N0WYy1vl","fields":{"Club Name":"Bainbridge High School","Latitude":47.6360529,"Longitude":-122.5247632,"Status":"inactive"}},{"id":"recEqLIAAK4v8cQta","fields":{"Club Name":"Williams Field High School","Latitude":33.31422060000001,"Longitude":-111.7219207,"Status":"inactive"}},{"id":"recErYl0v2CXD2xyT","fields":{"Club Name":"Dr. Ambedkar institute of Technology for Handicapped","Latitude":26.5030619,"Longitude":80.2766609,"Status":"inactive"}},{"id":"recErlgiDdpyYyl3K","fields":{"Club Name":"Bridgewater-Raritan High School","Latitude":40.59302162954948,"Longitude":-74.63450496039546,"Status":"inactive"}},{"id":"recEt6ld0O7keJFEo","fields":{"Club Name":"Basha High School","Latitude":33.22109577211524,"Longitude":-111.75872695270135,"Status":"active"}},{"id":"recEur53SgPIHq6lF","fields":{"Club Name":"Gharbiya STEM High School","Latitude":30.7803609,"Longitude":31.0099605,"Status":"active"}},{"id":"recF0eNmUbU9SN8Qn","fields":{"Club Name":"Delhi Public School","Latitude":18.4610637,"Longitude":73.92510349999999,"Status":"inactive"}},{"id":"recF2jrTKdp4YTEQn","fields":{"Club Name":"Unionville High School","Latitude":43.85891462843142,"Longitude":-79.33688502883605,"Status":"active"}},{"id":"recF3g84MMQUP9GS9","fields":{"Club Name":"Tesoro High School","Latitude":33.5779129,"Longitude":-117.6138477,"Status":"active"}},{"id":"recF6RyGIDAsZZPnq","fields":{"Club Name":"Tech Phantoms","Status":"inactive"}},{"id":"recF9Wk2lU9gx6Gc8","fields":{"Club Name":"Vista Verde K-8","Latitude":33.6302784,"Longitude":-117.827591,"Status":"active"}},{"id":"recF9YhVls8NMSA57","fields":{"Club Name":"Virtual Club called Coffee n Code","Status":"inactive"}},{"id":"recFFW6l4RwV1nAse","fields":{"Club Name":"Thornhill Park School","Latitude":54.8888627,"Longitude":-1.4118847,"Status":"inactive"}},{"id":"recFGbBUXL9N0DubX","fields":{"Club Name":"Institute of Engineering and technology, Calicut University","Latitude":11.12406,"Longitude":75.899557,"Status":"inactive"}},{"id":"recFO0lJJDcZBmubZ","fields":{"Club Name":"St Mary's Senior High School","Latitude":-33.76379380000001,"Longitude":150.7706912,"Status":"inactive"}},{"id":"recFPMZtGT8lbd8CB","fields":{"Club Name":"Malden High School","Latitude":42.42901900954178,"Longitude":-71.06017255767152,"Status":"inactive"}},{"id":"recFWEiofpX5eCXrO","fields":{"Club Name":"Abiingdon School","Status":"active"}},{"id":"recFdUSuycils0V7F","fields":{"Club Name":"Montgomery Blair High School","Latitude":39.01829705,"Longitude":-77.01147200465839,"Status":"inactive"}},{"id":"recFdVISg5Jf8cwTt","fields":{"Club Name":"Colegio Humboldt  Deutsche Schule Puebla","Latitude":19.0660057,"Longitude":-98.2612109,"Status":"active"}},{"id":"recFe4LyGM4htKucG","fields":{"Club Name":"TechEclipse Hub","Latitude":40.171884969728566,"Longitude":-75.22796394232788,"Status":"active"}},{"id":"recFfoSE3Tfhg1gQE","fields":{"Club Name":"Susan E. Wagner High School","Latitude":40.59,"Longitude":-74.12,"Status":"active"}},{"id":"recFgotuz24KkYRk5","fields":{"Club Name":"Maharaja Surajmal Institute of Technology","Latitude":28.621899,"Longitude":77.08783849999999,"Status":"inactive"}},{"id":"recFhJrXwMXiaZvn8","fields":{"Club Name":"Waterford School","Latitude":40.58014333119533,"Longitude":-111.84921242925132,"Status":"active"}},{"id":"recFhL8Nyyz6vv7MD","fields":{"Club Name":"Woodbridge High School","Latitude":33.6783988,"Longitude":-117.8064609,"Status":"active"}},{"id":"recFkgStlGpU6DkkP","fields":{"Club Name":"Orlando Science High School","Latitude":28.555241914570527,"Longitude":-81.41282297327228,"Status":"active"}},{"id":"recFmTRtyOOhkvcWh","fields":{"Club Name":"Saint George international school ","Status":"active"}},{"id":"recFnXS91Fvv11zWg","fields":{"Club Name":"HAckers of Pathankot","Latitude":32.295076354458516,"Longitude":75.62909930903851,"Status":"active"}},{"id":"recFncfLmoqsmb1NL","fields":{"Club Name":"PSB Academy","Status":"inactive"}},{"id":"recFnqTwrxtKrItLv","fields":{"Club Name":"FC Robo Brawlers","Latitude":33.105611951606846,"Longitude":-96.76845637116442,"Status":"active"}},{"id":"recFofZ349EF7gB7l","fields":{"Club Name":"Jose Marti STEM Academy","Latitude":40.7659061,"Longitude":-74.03800629999999,"Status":"active"}},{"id":"recFt81obZ3c7kkRG","fields":{"Club Name":"Fountainhead School","Latitude":21.245312378542035,"Longitude":72.75266113068716,"Status":"active"}},{"id":"recG0wuqfnCsXdpy5","fields":{"Club Name":"COMSATS University Islamabad Lahore Campus ","Latitude":31.3914304,"Longitude":74.24116049999999,"Status":"inactive"}},{"id":"recG2G9UQY8EakWdD","fields":{"Club Name":"UTRGV Harlingen Collegiate High School","Latitude":26.169068008174843,"Longitude":-97.6637833896619,"Status":"active"}},{"id":"recG4LGzUwEjaKtig","fields":{"Club Name":"Charlottetown Rural High School","Latitude":46.2585736,"Longitude":-63.1504632,"Status":"unknown"}},{"id":"recG5j9Lffw3vZafY","fields":{"Club Name":"Al Jouf University ","Latitude":23.885942,"Longitude":45.079162,"Status":"inactive"}},{"id":"recG84RVwFhIynBl1","fields":{"Club Name":"ARHC codeclub","Latitude":52.22732893111642,"Longitude":5.15660671535753,"Status":"active"}},{"id":"recGAOcsMEzAG5LkH","fields":{"Club Name":"St. Mary's college, Allapra","Status":"inactive"}},{"id":"recGDiXWhihkuzvby","fields":{"Club Name":"Lily Travels office ","Latitude":23.835769,"Longitude":86.427875,"Status":"active"}},{"id":"recGE97m9Uox08HdK","fields":{"Club Name":"Saint Joseph Notre Dame High School","Latitude":37.76551020550095,"Longitude":-122.25525464570806,"Status":"active"}},{"id":"recGEKG51Tf7okDIH","fields":{"Club Name":"NIT Srinagar ","Latitude":34.1310885,"Longitude":74.84209249999999,"Status":"inactive"}},{"id":"recGEtWAfW2HGIFjB","fields":{"Club Name":"Preston Public School","Latitude":43.397255566852564,"Longitude":-80.35762605630995,"Status":"active"}},{"id":"recGI4WBOPXM3Ux2u","fields":{"Club Name":"SuperNova School","Status":"inactive"}},{"id":"recGI9Q7WhgHHxST0","fields":{"Club Name":"Visakhapatnam ","Latitude":17.690409785257852,"Longitude":83.20699434839997,"Status":"active"}},{"id":"recGMl6Oc0Rx9FlpY","fields":{"Club Name":"Qena STEM School","Latitude":26.244810035716036,"Longitude":32.74068582945133,"Status":"inactive"}},{"id":"recGO8h7z7tVi8w0g","fields":{"Club Name":"D Y PATIL SCHOOL OF ACADEMY","Latitude":18.755332,"Longitude":73.6683894,"Status":"inactive"}},{"id":"recGRgVeB37sDXHIh","fields":{"Club Name":"Saratoga High School","Latitude":37.26684666772122,"Longitude":-122.02946565397693,"Status":"active"}},{"id":"recGRplzBMt73dWsw","fields":{"Club Name":"Goldengate International College","Latitude":27.70362448575554,"Longitude":85.34021539850427,"Status":"active"}},{"id":"recGWfClGgmxiUtfF","fields":{"Club Name":"William Mason High School","Latitude":39.3225542,"Longitude":-84.3125099,"Status":"active"}},{"id":"recGWkHmh9wr4kQt2","fields":{"Club Name":"TAXILA CENTRAL COLLEGE","Latitude":6.7118121,"Longitude":80.0644171,"Status":"inactive"}},{"id":"recGYeFWgyiPr57Rq","fields":{"Club Name":"SSSDIIT Gurukul","Latitude":21.522184,"Longitude":70.457878,"Status":"inactive"}},{"id":"recGYw0xi0lIjqm0y","fields":{"Club Name":"army quarters Bathinda ","Latitude":301236.2,"Longitude":750014.8,"Status":"active"}},{"id":"recGcz0o7tlNpYtS2","fields":{"Club Name":"The Shri Ram School. Moulsari","Latitude":28.498368,"Longitude":77.10031359999999,"Status":"inactive"}},{"id":"recGfLgNqNjy2TY1g","fields":{"Club Name":"Sahyadri College of Engineering and Management","Latitude":12.8660993,"Longitude":74.9256419,"Status":"inactive"}},{"id":"recGgJjBjEVleLdMv","fields":{"Club Name":"Vellore Institute of Technology, Amaravathi","Latitude":16.5098886,"Longitude":80.63546649999999,"Status":"inactive"}},{"id":"recGhU9FJ4q9r3cx2","fields":{"Club Name":"Saint Charles East High School","Latitude":41.9274362,"Longitude":-88.2808843,"Status":"active"}},{"id":"recGjHUkpDtO1zaAt","fields":{"Club Name":"Bonita Vista Hack Club","Latitude":32.6461246,"Longitude":-116.9982109,"Status":"active"}},{"id":"recGlktClp5hLnyNA","fields":{"Club Name":"Ike Hack Club","Latitude":42.68522293923327,"Longitude":-82.95632077416975,"Status":"active"}},{"id":"recGxkDS1ST08nwHj","fields":{"Club Name":"Abbotsford Senior Secondary","Latitude":49.04430487182889,"Longitude":-122.3,"Status":"active"}},{"id":"recH4JAxpGTjDC2bO","fields":{"Club Name":"National Institute of Fashion Technology, Chennai","Latitude":12.9833891,"Longitude":80.25247569999999,"Status":"inactive"}},{"id":"recH4vAoTYtiaxsJs","fields":{"Club Name":"Icarus Club","Latitude":11.016310139377929,"Longitude":-74.85047269478754,"Status":"active"}},{"id":"recHA5jH2jH54PQrC","fields":{"Club Name":"Hopkins School","Latitude":41.32009535738081,"Longitude":-72.97242209629785,"Status":"active"}},{"id":"recHN6jMFrvHe1vTK","fields":{"Club Name":"Ferme Dupire ","Latitude":50.618465687032575,"Longitude":3.141741457668428,"Status":"active"}},{"id":"recHRRhenHS0McQmt","fields":{"Club Name":"Kips high school ","Status":"active"}},{"id":"recHS3v7giZnA5plm","fields":{"Club Name":"North Thurston Hack Club","Latitude":47.0534843,"Longitude":-122.8311201,"Status":"active"}},{"id":"recHUHWnkTLlnL9Nm","fields":{"Club Name":"Maxfort School, Rohini","Latitude":28.722367052121392,"Longitude":77.08046237207807,"Status":"active"}},{"id":"recHUP5v7AP6Zea0I","fields":{"Club Name":"Govt Brennen CET","Status":"inactive"}},{"id":"recHWCJVWnhL1vviW","fields":{"Club Name":"Colégio Interativo SP","Latitude":-23.5362282,"Longitude":-46.4993886,"Status":"active"}},{"id":"recHbyxWDC08IocVD","fields":{"Club Name":"Nonsuch High School","Latitude":51.3574902,"Longitude":-0.220025,"Status":"inactive"}},{"id":"recHduymtI6h0t5ie","fields":{"Club Name":"JIS College of Engineering ","Status":"inactive"}},{"id":"recHfBzW7cZT5PT20","fields":{"Club Name":"Palora HSS","Status":"inactive"}},{"id":"recHhbZVPBE87UWEY","fields":{"Club Name":"St. Anne's School","Status":"inactive"}},{"id":"recHjnGXymEAgCpJ9","fields":{"Club Name":"William L. Dickinson High School","Latitude":40.7295831,"Longitude":-74.05416319999999,"Status":"inactive"}},{"id":"recHmRnJZmLMqnsaE","fields":{"Club Name":"Alcester Grammar School","Latitude":52.21874464928701,"Longitude":-1.8750167723616575,"Status":"active"}},{"id":"recHqDonJM9gSW2BB","fields":{"Club Name":"Netaji Subhas University of Technology","Latitude":28.6078176,"Longitude":77.04061469999999,"Status":"inactive"}},{"id":"recHqRHjhF8fztd9i","fields":{"Club Name":"Belchertown High School","Latitude":42.210870532268956,"Longitude":-72.37589483068916,"Status":"active"}},{"id":"recHrs4YXahQUm5a6","fields":{"Club Name":"Shoolini University Of Biotechnology and Management Sciences","Latitude":30.8644333,"Longitude":77.1183538,"Status":"inactive"}},{"id":"recI2vQOdt9Rqudg3","fields":{"Club Name":"Henry M. Gunn High School","Latitude":37.40242385,"Longitude":-122.1339436935126,"Status":"inactive"}},{"id":"recI7wOrWTjribDmq","fields":{"Club Name":"Belleville High School","Latitude":40.80264870383832,"Longitude":-74.16167506659104,"Status":"inactive"}},{"id":"recI8QCpDImJ8wLM1","fields":{"Club Name":"Lady Manners School","Latitude":53.20638478228485,"Longitude":-1.684653228835334,"Status":"active"}},{"id":"recI8jvtBsWPcRkO2","fields":{"Club Name":"Lycée Polyvalent Frederic Ozanam (Général & Technologique)","Latitude":50.639656094293386,"Longitude":3.0868301018524393,"Status":"active"}},{"id":"recIBDcyROiPEiyvI","fields":{"Club Name":"Lakshmi Narayan college of technology and science","Latitude":22.7976768,"Longitude":75.8472961,"Status":"inactive"}},{"id":"recIDQFbYv3xQqdxa","fields":{"Club Name":"The Perse School","Latitude":52.18608674998429,"Longitude":0.1379471104289714,"Status":"active"}},{"id":"recIMSNQclOiCqWHo","fields":{"Club Name":"Spark Society","Latitude":42.28619613712123,"Longitude":-71.23088011165609,"Status":"active"}},{"id":"recIOBmHVt99GyJxv","fields":{"Club Name":"University of Peshawar ","Latitude":33.9975529,"Longitude":71.4973353,"Status":"inactive"}},{"id":"recIQXmxJfSDzLBNq","fields":{"Club Name":"Kabulonga Boys Secondary school","Latitude":-15.4205772,"Longitude":28.3456204,"Status":"inactive"}},{"id":"recIS38vBaFwA7cIW","fields":{"Club Name":"Pabna University of science and tech.","Latitude":24.1690284,"Longitude":89.14142249999999,"Status":"inactive"}},{"id":"recIVhiHSajWkqHLQ","fields":{"Club Name":"Chatsworth Charter High School","Latitude":34.253,"Longitude":-118.585,"Status":"active"}},{"id":"recIXuDugqTRI0gNh","fields":{"Club Name":"Cedar College","Latitude":24.878433900881774,"Longitude":67.07403243638682,"Status":"active"}},{"id":"recIYSo1pzz2k44UF","fields":{"Club Name":"Techno India Group Public School Konnagar","Latitude":22.711732256492233,"Longitude":88.33439719508603,"Status":"active"}},{"id":"recIaFg32cFFllnzd","fields":{"Club Name":"Palmer Secondary","Latitude":49.15480248324007,"Longitude":-123.12923848465643,"Status":"active"}},{"id":"recIakmhJXHF6WXYV","fields":{"Club Name":"Webster Groves High School","Latitude":38.589359,"Longitude":-90.348822,"Status":"inactive"}},{"id":"recIbKcyrcxbrucYX","fields":{"Club Name":"P.E.S College of Engineering","Latitude":12.5203278,"Longitude":76.88142859999999,"Status":"inactive"}},{"id":"recIdi0CwmrNCnfDW","fields":{"Club Name":"Mira Loma High School","Latitude":38.6341428,"Longitude":-121.3707786,"Status":"inactive"}},{"id":"recIfb7Nw0C8zfm4W","fields":{"Club Name":"Robert F Hall Catholic Secondary School","Latitude":43.77406089999999,"Longitude":-79.7822146,"Status":"active"}},{"id":"recIgF5cW3sow0phl","fields":{"Club Name":"Louis D. Brandeis High School","Latitude":29.561340445633707,"Longitude":-98.64430635427519,"Status":"unknown"}},{"id":"recIin1L4hQUkPDKJ","fields":{"Club Name":"Guru Gobind Singh Indraprastha University","Status":"inactive"}},{"id":"recIj0FXKdSNZGn2g","fields":{"Club Name":"Cupertino Library/Online","Latitude":37.3177895,"Longitude":-122.0289607,"Status":"active"}},{"id":"recIlL3xn61cDjFJR","fields":{"Club Name":"WEBVENTURE","Latitude":28.415314,"Longitude":77.2971731,"Status":"active"}},{"id":"recImb6OSyuPjSd8S","fields":{"Club Name":"St. Francis Desales ","Latitude":40.0529269,"Longitude":-82.97276409999999,"Status":"inactive"}},{"id":"recIq9ZK4IJCeQFIe","fields":{"Club Name":"Holy Cross Regional High Scool","Status":"active"}},{"id":"recIuXi7X0vhEIv59","fields":{"Club Name":"Bahauddin Zakariya University Multan","Latitude":30.256124,"Longitude":71.504754,"Status":"inactive"}},{"id":"recIvBWHNI40FtwMP","fields":{"Club Name":"Federal polytechnic Bida College ","Latitude":9.0394177,"Longitude":6.0064512,"Status":"inactive"}},{"id":"recIvtk0o3bfdylTn","fields":{"Club Name":"Nazarbayev Intellectual school of Physics and Mathematics in Aktobe","Latitude":50.27680710262525,"Longitude":57.1318391,"Status":"active"}},{"id":"recIyNRgVkb2I6q3j","fields":{"Club Name":"Wycombe Abbey","Latitude":51.6260562,"Longitude":-0.750977,"Status":"inactive"}},{"id":"recJ1TqPN7Jo7ikD8","fields":{"Club Name":"Dr. Babasaheb Ambedkar Technological University LOnere, Maharashtra,India","Latitude":18.1698201,"Longitude":73.338533,"Status":"inactive"}},{"id":"recJ579AhY0ZM6kJ2","fields":{"Club Name":"Arcadia High School","Latitude":34.1397,"Longitude":-118.03534,"Status":"active"}},{"id":"recJ79WXnf9Iwe30e","fields":{"Club Name":"North Central High School","Latitude":39.91203191530229,"Longitude":-86.12896906931493,"Status":"active"}},{"id":"recJEzeXYUZHPwOVR","fields":{"Club Name":"Chaparral High School","Latitude":33.577263706410115,"Longitude":-111.93234799999999,"Status":"active"}},{"id":"recJGLKAMludlAkqw","fields":{"Club Name":"Cardinal Léger Secondary School","Latitude":43.683741299999994,"Longitude":-79.75158563989115,"Status":"unknown"}},{"id":"recJGZltG2sa3DT4K","fields":{"Club Name":"The Islamia University Bahawalpur","Latitude":29.3803738,"Longitude":71.7563169,"Status":"inactive"}},{"id":"recJIi8KSjERJQM5F","fields":{"Club Name":"Ecole Panorama Ridge Secondary Schools","Latitude":49.1178588,"Longitude":-122.8556075,"Status":"inactive"}},{"id":"recJK9gZoYdhxuNIL","fields":{"Club Name":"Mount Everest Academy","Latitude":32.8198742,"Longitude":-117.1864886,"Status":"active"}},{"id":"recJLdY7TwXfQLQay","fields":{"Club Name":"De Paul public school","Status":"inactive"}},{"id":"recJLpqqGI4jFkU2B","fields":{"Club Name":"AAST-IEP","Latitude":31.264246793067123,"Longitude":29.9989530946932,"Status":"active"}},{"id":"recJMs5tQeVq5BQPe","fields":{"Club Name":"Federal Institute of Science and technology","Status":"inactive"}},{"id":"recJQE0j1yWGYKdIq","fields":{"Club Name":"Indian Hill High School","Latitude":39.149642,"Longitude":-84.43517,"Status":"unknown"}},{"id":"recJQLDEChiW12ipZ","fields":{"Club Name":"Plainfield East High School","Latitude":41.6651389,"Longitude":-88.1753281,"Status":"active"}},{"id":"recJSkZC0uMtnn1Vf","fields":{"Club Name":"Sycamore High School","Latitude":39.26740283582878,"Longitude":-84.35210109006859,"Status":"active"}},{"id":"recJSkx3CIEu9YxuT","fields":{"Club Name":"Bush Computer Club","Latitude":29.706094958679063,"Longitude":-95.68539474602758,"Status":"active"}},{"id":"recJWkthQBAoeuqRl","fields":{"Club Name":"Vishwajyothi Public School","Status":"inactive"}},{"id":"recJYRjUYd1YCTP3N","fields":{"Club Name":"Coral Gables Senior High School","Latitude":25.73462239613242,"Longitude":-80.26325191534252,"Status":"active"}},{"id":"recJa5LAnM53r4Qjj","fields":{"Club Name":"Kent County High School","Latitude":39.2854268,"Longitude":-76.0915824,"Status":"inactive"}},{"id":"recJc3qyowKO5bnHl","fields":{"Club Name":"Rancho Bernardo High School","Latitude":32.99484510758876,"Longitude":-117.06531793068447,"Status":"active"}},{"id":"recJfuvYj8WUrFsif","fields":{"Club Name":"El Camino Real Charter High School","Latitude":34.1701649,"Longitude":-118.6431457,"Status":"unknown"}},{"id":"recJh4MgdTDChqKbc","fields":{"Club Name":"Polaris Expeditionary Learning School ","Latitude":40.5293254,"Longitude":-105.1375908,"Status":"active"}},{"id":"recJho1thmkmbj2gj","fields":{"Club Name":"Holliston High school","Latitude":42.20690249963437,"Longitude":-71.44378201534595,"Status":"active"}},{"id":"recJj1Kp8o0yvLa4Y","fields":{"Club Name":"GEMS World Academy Singapore","Latitude":1.4242946,"Longitude":103.8507128,"Status":"inactive"}},{"id":"recJnMyJna7g1DP2i","fields":{"Club Name":"@ MUET SZAB Hack Club","Latitude":27.5255625,"Longitude":68.75507329999999,"Status":"inactive"}},{"id":"recJowaRpS1yfRZka","fields":{"Club Name":"Pusch Ridge Christian Academy","Latitude":32.2742069,"Longitude":-110.9780771,"Status":"active"}},{"id":"recJqbZsnwEEUi05E","fields":{"Club Name":"St. Columbas High School","Latitude":28.629446,"Longitude":77.205918,"Status":"inactive"}},{"id":"recJtUIJVoMXvTUTf","fields":{"Club Name":"teenVerse","Latitude":29.3817047640992,"Longitude":71.73769563361728,"Status":"active"}},{"id":"recJvstFdc0LMCZ2A","fields":{"Club Name":"Sacred Heart Senior Secondary Convent School , Chandausi , Sambhal , 244412 , UP","Latitude":28.452277,"Longitude":78.7764942,"Status":"active"}},{"id":"recJw0y6FSon7jt1p","fields":{"Club Name":"Chovva Higher Secondary School","Status":"inactive"}},{"id":"recJzgkEfstYWRAnb","fields":{"Club Name":"Shanghai SMIC private school","Latitude":31.21551,"Longitude":121.62264,"Status":"inactive"}},{"id":"recK2WG6com7q8ssD","fields":{"Club Name":"Suzanne cory  high school","Latitude":-37.8935764,"Longitude":144.6997648,"Status":"active"}},{"id":"recK3a4NHSmE7GMbZ","fields":{"Club Name":"Chatham High School","Latitude":40.73156317167938,"Longitude":-74.40146825767152,"Status":"active"}},{"id":"recK3vL2SQCObYK4w","fields":{"Club Name":"Karmayoga Academy ","Latitude":22.28310313304174,"Longitude":70.76588520642649,"Status":"inactive"}},{"id":"recK4NM3EB9ieIobH","fields":{"Club Name":"Universal High, Thane","Latitude":19.2465056,"Longitude":72.9843238,"Status":"inactive"}},{"id":"recK4OyxdvYMRKHc4","fields":{"Club Name":"Loyola Sacred Heart High School","Latitude":46.862220813155275,"Longitude":-114.002191284585,"Status":"active"}},{"id":"recK9qBXA4LuLnl49","fields":{"Club Name":"Cape academy of mathematics,science& technology","Latitude":-34.0437017,"Longitude":18.4432315,"Status":"inactive"}},{"id":"recKCXhyXpAkX4uIB","fields":{"Club Name":"Hack Time Club","Latitude":35.14481010187,"Longitude":117.46934130583806,"Status":"active"}},{"id":"recKEhEHGQdpB7CEo","fields":{"Club Name":"Deland High School","Latitude":29.04162830666028,"Longitude":-81.28397436767612,"Status":"active"}},{"id":"recKSQklTNJi63b6G","fields":{"Club Name":"Liberal Arts & Science Academy","Latitude":30.258742599999998,"Longitude":-97.68108628699233,"Status":"inactive"}},{"id":"recKUGfcRmBRTQYQh","fields":{"Club Name":"Assumption College Thonburi","Latitude":13.73239938562366,"Longitude":100.37103891534424,"Status":"active"}},{"id":"recKV6tDuGrRctkRj","fields":{"Club Name":"Alibeyköy Mesleki Ve Teknik Anadolu Lisesi","Latitude":41.0748762,"Longitude":28.94158819999999,"Status":"inactive"}},{"id":"recKWj3LcBFyATtZd","fields":{"Club Name":"Sreenidhi Institute of Science and Technology","Status":"inactive"}},{"id":"recKX6W7ZehEOB1sb","fields":{"Club Name":"Charlottesville High School","Latitude":38.05323412602476,"Longitude":-78.47514603862992,"Status":"active"}},{"id":"recKfRlyt7LbN9oUv","fields":{"Club Name":"Çatalca Anadolu Lisesi ","Latitude":41.13366395295097,"Longitude":28.47691962701242,"Status":"inactive"}},{"id":"recKgce8inx9xCRNS","fields":{"Club Name":"Churchill High School","Latitude":44.0390378,"Longitude":-123.151115,"Status":"inactive"}},{"id":"recKqAL4HbuM4djXr","fields":{"Club Name":"Sage Creek High School","Latitude":33.15793330444874,"Longitude":-117.28460030720392,"Status":"active"}},{"id":"recKs51hgpx68x6US","fields":{"Club Name":"Vista Ridge High School","Latitude":30.5168651,"Longitude":-97.78632909999999,"Status":"active"}},{"id":"recKtjHD2QAtM9Qdr","fields":{"Club Name":"Olabisi Onabanjo","Status":"inactive"}},{"id":"recKtnpjHkYSs0R7X","fields":{"Club Name":"Mounds View High School","Latitude":45.06501618454131,"Longitude":-93.18073771534452,"Status":"active"}},{"id":"recKzBmJ0eqWPyP4M","fields":{"Club Name":"Arrow Head Park Early College High School","Latitude":32.272633,"Longitude":-106.737864,"Status":"inactive"}},{"id":"recKznwpZmcahBcJ6","fields":{"Club Name":"Liceum w chmurze","Latitude":52.2583382,"Longitude":20.964219,"Status":"active"}},{"id":"recL06ckIOtkzXonb","fields":{"Club Name":"INQ Innovation","Status":"inactive"}},{"id":"recL1Xuqm0gX2C8dh","fields":{"Club Name":"Earl Warren High School","Latitude":29.463849644100954,"Longitude":-98.6701555619098,"Status":"active"}},{"id":"recL1j3AO7DPCZlq5","fields":{"Club Name":"Online","Status":"inactive"}},{"id":"recL6KiLeFLvKgmo2","fields":{"Status":"inactive"}},{"id":"recLA8XaIqegZA4Cx","fields":{"Club Name":"Jack M. Barrack Hebrew Academy","Latitude":40.01862253968988,"Longitude":-75.32423702883632,"Status":"active"}},{"id":"recLFIaepwRN2vDg8","fields":{"Club Name":"Danforth Collegiate & Technical Institute","Latitude":43.68234352165143,"Longitude":-79.33357908465781,"Status":"active"}},{"id":"recLHImDSvGhHNYDq","fields":{"Club Name":"Fairfield Warde High School","Latitude":41.1862602,"Longitude":-73.2339622,"Status":"active"}},{"id":"recLMIXEnEQmRo3IO","fields":{"Club Name":"CUSAT","Status":"inactive"}},{"id":"recLMmMEblFmcElRp","fields":{"Club Name":"Ocean Grove Charter School","Latitude":38.6998872895126,"Longitude":-120.82186067116456,"Status":"active"}},{"id":"recLOPtynausDQ9N0","fields":{"Club Name":"MH Hacks","Latitude":370546.2,"Longitude":1213830.8,"Status":"active"}},{"id":"recLPXgNUR4jF9ZHv","fields":{"Club Name":"The Martyr Ibraheem al-Rifaee Language School.","Status":"inactive"}},{"id":"recLQmod6Xhf1pk5C","fields":{"Club Name":"Teens That Code Hack Club","Latitude":6.60503873297929,"Longitude":3.2650566504004788,"Status":"active"}},{"id":"recLRLedRBm2rnDqj","fields":{"Club Name":"Rosemead High School","Latitude":34.0854317,"Longitude":-118.0717554,"Status":"active"}},{"id":"recLS6vquumpzfnzg","fields":{"Club Name":"Bahçelievler Gökkuşağı Koleji HackClub","Latitude":41.007844938956346,"Longitude":28.87300839260233,"Status":"inactive"}},{"id":"recLVl7enPuQZrzLx","fields":{"Club Name":"Evanston Township High School","Latitude":42.0475443,"Longitude":-87.6997693,"Status":"active"}},{"id":"recLWvyqUFCHrHkSt","fields":{"Club Name":"Suncoast Community High School","Latitude":26.7780401,"Longitude":-80.0819202,"Status":"active"}},{"id":"recLYhfyOmNytB8kJ","fields":{"Club Name":"Hack Club SSTC","Latitude":21.2394884,"Longitude":81.30339219999999,"Status":"inactive"}},{"id":"recLaFJWKBGAYKTto","fields":{"Club Name":"Thomas A. Edison Career and Technical Education High School","Latitude":40.7162107,"Longitude":-73.7988039,"Status":"active"}},{"id":"recLbyRf4y6iYm8qz","fields":{"Club Name":"Windham High School","Latitude":42.79511377234046,"Longitude":-71.32289075766205,"Status":"active"}},{"id":"recLg8mwfnWxlAXNE","fields":{"Club Name":"R.L.B. School Sector 3 Vikas Nagar lucknow","Latitude":26.8984544,"Longitude":80.9595011,"Status":"active"}},{"id":"recLg90OSBm3W1AnN","fields":{"Club Name":"Marblehead High School","Latitude":42.49238817917813,"Longitude":-70.86911601370198,"Status":"active"}},{"id":"recLmD8MkqnTO97MI","fields":{"Club Name":"Stuyvesant High School","Latitude":40.7181492,"Longitude":-74.0137623,"Status":"inactive"}},{"id":"recLqRz9rqg1ZKVQp","fields":{"Club Name":"Northview High School","Latitude":34.03905510000001,"Longitude":-84.1773072,"Status":"inactive"}},{"id":"recLsLTvT91BwVWAH","fields":{"Club Name":"Curious Coders Club","Latitude":13.0072588,"Longitude":77.71739749999999,"Status":"active"}},{"id":"recLv6JheirqSFaYP","fields":{"Club Name":"Apaper Complex School","Latitude":-1.9528303,"Longitude":30.1028596,"Status":"inactive"}},{"id":"recLw3MtOcUGv4U5m","fields":{"Club Name":"Sir chotu ram institute of engineering and technology, CCSU Campus","Latitude":28.969152,"Longitude":77.7405105,"Status":"inactive"}},{"id":"recLwyOBXuEyd372p","fields":{"Club Name":"Myanmar Institute of Information Technology","Latitude":21.9427482,"Longitude":96.0935648,"Status":"inactive"}},{"id":"recM0uBYr7pKji3nw","fields":{"Club Name":"Middletown High School","Latitude":41.51799337216145,"Longitude":-71.28739756580778,"Status":"active"}},{"id":"recM2t5HbWO5JBAfL","fields":{"Club Name":"Sharad Institute of Technology, College of Engineering, Yadrav","Status":"inactive"}},{"id":"recM3yBImHrjNh9Nb","fields":{"Club Name":"Hill Regional Career High School","Latitude":41.30604045441154,"Longitude":-72.94074751534357,"Status":"active"}},{"id":"recMATsgdljsEdEC4","fields":{"Club Name":"Arsenic","Latitude":38.066200919087876,"Longitude":46.34893391517012,"Status":"active"}},{"id":"recMEwVvhqBD91ASa","fields":{"Club Name":"University of Illinois Laboratory High School","Latitude":40.11307282527771,"Longitude":-88.2252694322927,"Status":"active"}},{"id":"recMHmpPJPDawQWFb","fields":{"Club Name":"Maharaja Public school","Status":"inactive"}},{"id":"recMNk9Zm5jqELnlt","fields":{"Club Name":"Nexus International School","Latitude":1.3211367,"Longitude":103.8809609,"Status":"inactive"}},{"id":"recMOheybvdYPlUCH","fields":{"Club Name":"Indira Gandhi Engineering College Sagar","Status":"inactive"}},{"id":"recMQqKGCYAQpqjG0","fields":{"Club Name":"West Lafayette Jr/Sr High School","Latitude":40.436141,"Longitude":-86.9118518,"Status":"inactive"}},{"id":"recMTlMtYDPykuHr1","fields":{"Club Name":"Walnut Grove Secondary School","Latitude":33.7540276,"Longitude":-83.87297939999999,"Status":"inactive"}},{"id":"recMTlRANsGLtXY4Q","fields":{"Club Name":"ElNahda Experimental School","Latitude":29.98907306319924,"Longitude":31.20982866072678,"Status":"active"}},{"id":"recMWORIWvFAnma8H","fields":{"Club Name":"Jackson Memorial High School","Latitude":40.107842763531224,"Longitude":-74.3457339,"Status":"active"}},{"id":"recMWnb2J2ee2vedM","fields":{"Club Name":"CodersBay","Latitude":11.1202668,"Longitude":76.1198972,"Status":"active"}},{"id":"recMZ9rE2aIuab0zb","fields":{"Club Name":"Mar Athanasius College of Engineering","Latitude":10.0540169,"Longitude":76.6191834,"Status":"inactive"}},{"id":"recMZvjKaF3nRybjz","fields":{"Club Name":"SMA negeri 1 gemolong","Latitude":-7.400565199999999,"Longitude":110.8358927,"Status":"inactive"}},{"id":"recMdB7CSmfUEGvPL","fields":{"Club Name":"Athens Academy","Latitude":33.9014097010512,"Longitude":-83.40162969521744,"Status":"active"}},{"id":"recMdD8xhZ1Tk7Tg4","fields":{"Club Name":"Arizona Online Hack Club","Latitude":33.5806,"Longitude":-112.237,"Status":"active"}},{"id":"recMdS64qTIVkYJSK","fields":{"Club Name":"JC Bose","Latitude":28.3761891,"Longitude":77.3145273,"Status":"inactive"}},{"id":"recMjG4dknD1hFmzl","fields":{"Club Name":"IFPE - Campus Barreiros","Latitude":-8.822699611606872,"Longitude":-35.19622187115653,"Status":"active"}},{"id":"recMqZloJCEpJGZkh","fields":{"Club Name":"Vignan University ","Latitude":16.2355855,"Longitude":80.5605111,"Status":"inactive"}},{"id":"recMsdXFtisA7qBh5","fields":{"Club Name":"Evelyn hone  college","Latitude":-15.4187021,"Longitude":28.2932518,"Status":"inactive"}},{"id":"recMxU5o79dUSZV7W","fields":{"Club Name":"Newlands College ","Latitude":-41.21835970304287,"Longitude":174.82377644232847,"Status":"active"}},{"id":"recMxu1R3rdqkp9nE","fields":{"Club Name":"Ryad El Solh High School","Latitude":33.88357784243016,"Longitude":35.50490918109136,"Status":"active"}},{"id":"recN6CfXelhlpM4DV","fields":{"Status":"inactive"}},{"id":"recN8ByAZ20a58FZV","fields":{"Club Name":"DigitalPlat","Latitude":14.604547,"Longitude":120.996032,"Status":"active"}},{"id":"recN9ZUqOktYCgjt6","fields":{"Club Name":"International Academy West","Latitude":42.626475513326305,"Longitude":-83.51536273861622,"Status":"active"}},{"id":"recNA7wyk4T8G4LZ0","fields":{"Club Name":"University of Central Punjab","Latitude":31.4473233,"Longitude":74.26761429999999,"Status":"inactive"}},{"id":"recNBSawQbNbO4CER","fields":{"Club Name":"Dhahran Ahliyya Schools","Latitude":26.3279195,"Longitude":50.1600938,"Status":"active"}},{"id":"recND3Ez37N3cv0KZ","fields":{"Club Name":"Government College University Lahore (GCUL)","Latitude":31.573192205203707,"Longitude":74.30786257618212,"Status":"active"}},{"id":"recNFGSEWiImVZW0j","fields":{"Club Name":"Hacker's Hub","Latitude":31.1937369563124,"Longitude":121.37947176159835,"Status":"active"}},{"id":"recNHmI9pv0FLPgSR","fields":{"Club Name":"Malden High School","Latitude":42.426871769865116,"Longitude":-71.06473391904427,"Status":"active"}},{"id":"recNIy8hre1bdelqr","fields":{"Club Name":"Nalanda International Public School","Latitude":12.7409127,"Longitude":77.8252923,"Status":"inactive"}},{"id":"recNKjmWt2mTirOfM","fields":{"Club Name":"Pine Tree Hackers","Latitude":44.750876685884755,"Longitude":-68.86224353468343,"Status":"active"}},{"id":"recNLD6Iz4kPP0R3d","fields":{"Club Name":"Lambert Hack Club","Latitude":34.10586770510784,"Longitude":-84.13983804977391,"Status":"active"}},{"id":"recNLZZl9IMWm8zKB","fields":{"Club Name":"Colégio Atlântico","Latitude":38.598406471151335,"Longitude":-9.096876917036221,"Status":"active"}},{"id":"recNMyrnDN51F74eJ","fields":{"Club Name":"Jane Lathrop Stanford(JLS) Middle School","Latitude":37.42015609034976,"Longitude":-122.11743360477432,"Status":"active"}},{"id":"recNNFsQUiywl0QVQ","fields":{"Club Name":"Air University Multan Campus","Latitude":30.1921065,"Longitude":71.4450114,"Status":"inactive"}},{"id":"recNQQdE6Gkn8cJ1d","fields":{"Club Name":"Bibliotheca Alexandria (Library of Alexandria)","Latitude":31.209508827194675,"Longitude":29.9091587,"Status":"active"}},{"id":"recNQvliW7Prc2UnH","fields":{"Club Name":"NCE","Status":"inactive"}},{"id":"recNR6uSU38bG44Np","fields":{"Club Name":"National University Of Sciences and Technology","Latitude":33.6424084,"Longitude":72.99288179999999,"Status":"inactive"}},{"id":"recNURCzOurcNJuAl","fields":{"Club Name":"Poolesville High School","Latitude":39.1434357,"Longitude":-77.4183791,"Status":"active"}},{"id":"recNXXP5GKPV15cpZ","fields":{"Club Name":"Camellia Institute Of Techbology","Latitude":22.6850504,"Longitude":88.49215269999999,"Status":"inactive"}},{"id":"recNfcgYmpli7HSnm","fields":{"Club Name":"Dover-Eyota High School","Latitude":43.9828684,"Longitude":-92.2315077,"Status":"active"}},{"id":"recNhHcIZ0kbnXP0Y","fields":{"Club Name":"Francis Lewis High School","Latitude":40.7404652,"Longitude":-73.79360919999999,"Status":"inactive"}},{"id":"recNha40XBewcKdkg","fields":{"Club Name":"University of South Asia","Latitude":31.3689001,"Longitude":74.2325105,"Status":"inactive"}},{"id":"recNhwsurFqoPqSfe","fields":{"Club Name":"Westborough High School","Latitude":42.2645802,"Longitude":-71.6167858,"Status":"unknown"}},{"id":"recNij6zlfoyki5Bu","fields":{"Club Name":"Dharmsinh Desai University","Latitude":22.6849918,"Longitude":72.8838418,"Status":"inactive"}},{"id":"recNioYEY0Mwok46M","fields":{"Club Name":"JSS Academy of Technical Education","Latitude":28.6141104,"Longitude":77.3587762,"Status":"inactive"}},{"id":"recNjnqQpDfAmfX5y","fields":{"Club Name":"BK BIRLA INSTITUTE OF ENGINEERING AND TECHNOLOGY, PILANI","Latitude":28.3640783,"Longitude":75.59084949999999,"Status":"inactive"}},{"id":"recNnVi8OljnNFxy8","fields":{"Club Name":"PVSS DAV Public School ","Latitude":24.40944487170135,"Longitude":85.53532775670071,"Status":"active"}},{"id":"recNp6kIoGzdH64lN","fields":{"Club Name":"John F. Ross Collegiate Vocational Institute","Latitude":43.5612232,"Longitude":-80.24737859999999,"Status":"active"}},{"id":"recNpaAVi3Pnxfk0m","fields":{"Club Name":"RAJEEV GANDHI MEMMORIAL HSS","Status":"inactive"}},{"id":"recNqHNrFT8YjURZs","fields":{"Club Name":"ASDoha MakerSpace","Latitude":25.26287748311423,"Longitude":51.48152325431191,"Status":"active"}},{"id":"recNrIYba2PE0DUh3","fields":{"Club Name":"Stavros arg's backyard(temporary)","Latitude":37.99681827690282,"Longitude":23.671780873018918,"Status":"active"}},{"id":"recNrKYNQT8QoK6Oc","fields":{"Club Name":"Rajiv Gandhi Institute Of Technology","Status":"inactive"}},{"id":"recNyq4fgs33BZTLA","fields":{"Club Name":"ASSOCIACIO DE VEINS CAMI DE SES VINYES","Latitude":39.892518837188774,"Longitude":4.254498597184035,"Status":"active"}},